,city,lat,lng,country,LSOA,postcode
0,Dagenham,51.5397,0.1422,United Kingdom,E01000084,RM96HT
1,Barking,51.54,0.08,United Kingdom,E01000007,IG118NZ
2,Edgware,51.6185,-0.2729,United Kingdom,E01000192,HA88PF
3,Finchley,51.599,-0.187,United Kingdom,E01000197,N32HE
4,Hendon,51.5837,-0.2252,United Kingdom,E01000237,NW42TG
5,Barnet,51.6444,-0.1997,United Kingdom,E01000289,EN52FR
6,Mill Hill,51.62,-0.23,United Kingdom,E01000261,NW71QS
7,Friern Barnet,51.6126,-0.1584,United Kingdom,E01000162,N120NB
8,East Barnet,51.643,-0.163,United Kingdom,E01000174,EN48HG
9,East Finchley,51.5902,-0.1753,United Kingdom,E01000183,N20LR
10,Totteridge,51.6354,-0.2,United Kingdom,E01000291,N208AQ
11,Erith,51.48,0.1778,United Kingdom,E01000403,DA81FB
12,Sidcup,51.4263,0.1024,United Kingdom,E01000457,DA146DW
13,Welling,51.4594,0.1097,United Kingdom,E01000388,DA162AP
14,Bexleyheath,51.459,0.138,United Kingdom,E01000360,DA68DB
15,Wembley,51.5528,-0.2979,United Kingdom,E01000635,HA02BS
16,Kenton,51.5878,-0.3086,United Kingdom,E01002175,HA38HS
17,Dollis Hill,51.5641,-0.2341,United Kingdom,E01000501,NW27GZ
18,Wealdstone,51.5957,-0.3352,United Kingdom,E01002179,HA37AL
19,Bromley,51.407,0.021,United Kingdom,E01000825,BR2
20,Beckenham,51.408,-0.022,United Kingdom,E01000714,BR31DA
21,Hayes,51.378,0.0192,United Kingdom,E01000767,BR27LE
22,Chislehurst,51.412,0.075,United Kingdom,E01000696,BR76NW
23,Farnborough,51.3591,0.0741,United Kingdom,E01000752,BR67DB
24,Chelsfield,51.3582,0.1278,United Kingdom,E01000685,BR66HB
25,West Wickham,51.3765,-0.0193,United Kingdom,E01000835,BR40LR
26,Bickley,51.4003,0.0466,United Kingdom,E01000651,BR12UG
27,Holborn,51.5172,-0.1182,United Kingdom,E01000914,WC1V7EN
28,Highgate,51.5716,-0.1448,United Kingdom,E01002009,N65ER
29,Croydon,51.3727,-0.1099,United Kingdom,E01001014,CR04JF
30,Thornton Heath,51.4002,-0.1086,United Kingdom,E01000996,CR77QB
31,Coulsdon,51.3211,-0.1386,United Kingdom,E01001023,CR52RA
32,Shirley,51.3813,-0.0543,United Kingdom,E01001134,CR07PH
33,Sanderstead,51.3358,-0.0818,United Kingdom,E01001102,CR29JD
34,Ealing,51.5175,-0.2988,United Kingdom,E01001225,W5
35,Southall,51.5121,-0.3779,United Kingdom,E01001213,UB11PZ
36,Acton,51.5135,-0.2707,United Kingdom,E01001199,W36PR
37,Greenford,51.5299,-0.3488,United Kingdom,E01001260,UB68YT
38,Northolt,51.547,-0.362,United Kingdom,E01001319,UB54RN
39,Hanwell,51.5189,-0.3376,United Kingdom,E01001288,W7
40,Perivale,51.5383,-0.3192,United Kingdom,E01001343,UB67RL
41,Sudbury,51.5537,-0.3199,United Kingdom,E01000611,HA0
42,Enfield,51.6522,-0.0808,United Kingdom,E01001450,EN26LT
43,Edmonton,51.6154,-0.0708,United Kingdom,E01001425,N181QU
44,Enfield Lock,51.6686,-0.026,United Kingdom,E01001449,EN36ED
45,Palmers Green,51.6178,-0.1092,United Kingdom,E01001498,Palmers Greencentral postcode placeholder
46,Southgate,51.6316,-0.1265,United Kingdom,E01001519,N146PS
47,Woolwich,51.488,0.063,United Kingdom,E01001696,SE186QL
48,Eltham,51.451,0.052,United Kingdom,E01001615,SE91DH
49,Plumstead,51.49,0.09,United Kingdom,E01001673,SE181BU
50,Kidbrooke,51.465,0.033,United Kingdom,E01001623,SE38AY
51,Hackney,51.5414,-0.0266,United Kingdom,E01001849,E95HL
52,Fulham,51.4828,-0.195,United Kingdom,E01001880,SW61QP
53,Tottenham,51.588,-0.072,United Kingdom,E01002066,N154RX
54,Wood Green,51.5981,-0.1149,United Kingdom,E01002098,N227TW
55,Hornsey,51.587,-0.118,United Kingdom,E01002014,N87NU
56,Harrow,51.5836,-0.3464,United Kingdom,E01002160,HA11RS
57,Pinner,51.5932,-0.3894,United Kingdom,E01002192,HA53NX
58,Stanmore,51.618,-0.314,United Kingdom,E01002226,HA74AH
59,Harrow on the Hill,51.5655,-0.3327,United Kingdom,E01002134,HA1
60,Harrow Weald,51.604,-0.3389999999999999,United Kingdom,E01002142,HA36HT
61,Hatch End,51.601000000000006,-0.3743,United Kingdom,E01002152,HA55SU
62,Romford,51.5768,0.1801,United Kingdom,E01002356,RM70GJ
63,Hornchurch,51.5565,0.2128,United Kingdom,E01002364,RM124NJ
64,Upminster,51.5557,0.2512,United Kingdom,E01002386,RM143BS
65,Hayes,51.5127,-0.4211,United Kingdom,E01002502,UB32AY
66,Uxbridge,51.5404,-0.4778,United Kingdom,E01002523,UB82PF
67,Ruislip,51.576,-0.433,United Kingdom,E01002534,HA47LA
68,West Drayton,51.5043,-0.4646,United Kingdom,E01002526,UB79AT
69,Yiewsley,51.51300000000001,-0.471,United Kingdom,E01002552,UB78ES
70,Ickenham,51.558,-0.4484,United Kingdom,E01002463,UB108TE
71,Cowley,51.528,-0.481,United Kingdom,E01002518,UB82EL
72,Harefield,51.6034,-0.478,United Kingdom,E01002439,UB96QF
73,Hounslow,51.4668,-0.375,United Kingdom,E01002664,TW33FL
74,Feltham,51.4496,-0.4089,United Kingdom,E01002593,TW149BQ
75,Islington,51.544,-0.1027,United Kingdom,E01002791,N12UN
76,Highbury,51.552,-0.0969999999999999,United Kingdom,E01002738,N1
77,Kensington,51.5,-0.19,United Kingdom,E01002889,W85HP
78,Surbiton,51.394,-0.307,United Kingdom,E01002987,KT64LF
79,Kingston upon Thames,51.4103,-0.2995,United Kingdom,E01002964,KT26QG
80,Brixton,51.463,-0.106,United Kingdom,E01003051,SW98RB
81,Streatham,51.4279,-0.1235,United Kingdom,E01003148,SW162BX
82,Lambeth,51.4903,-0.1193,United Kingdom,E01003109,SE11
83,Catford,51.4452,-0.0207,United Kingdom,E01003324,SE64RU
84,Wimbledon,51.422,-0.208,United Kingdom,E01003401,SW197NE
85,Mitcham,51.4009,-0.1517,United Kingdom,E01003435,CR41HB
86,Morden,51.4015,-0.1949,United Kingdom,E01003426,SM45HP
87,Raynes Park,51.4033,-0.2321,United Kingdom,E01003471,SW20
88,East Ham,51.5323,0.0554,United Kingdom,E01003523,E66EU
89,Stratford,51.5423,-0.0026,United Kingdom,E01003617,E201GR
90,West Ham,51.5347,0.0077,United Kingdom,E01003633,E153LH
91,Ilford,51.5588,0.0855,United Kingdom,E01003686,IG11SN
92,Goodmayes,51.5584,0.1119,United Kingdom,E01003716,IG39PQ
93,Snaresbrook,51.587,0.0146,United Kingdom,E01003775,E182SR
94,Wanstead,51.5778,0.0286,United Kingdom,E01003777,E11
95,Twickenham,51.449,-0.337,United Kingdom,E01003870,TW11AA
96,Richmond,51.456,-0.301,United Kingdom,E01003821,TW106BB
97,Hampton,51.422,-0.3670000000000001,United Kingdom,E01003830,TW123AN
98,Kew Green,51.5308,-0.2248,United Kingdom,E01000532,NW105QP
99,Sutton,51.3656,-0.1963,United Kingdom,E01004142,SM11RL
100,Carshalton,51.3652,-0.1676,United Kingdom,E01004098,SM53PS
101,Wallington,51.3647,-0.1403,United Kingdom,E01004079,SM68HL
102,Worcester Park,51.3752,-0.239,United Kingdom,E01004121,KT48UR
103,Cheam,51.36,-0.21,United Kingdom,E01004157,SM12DR
104,Stepney,51.5152,-0.0462,United Kingdom,E01004289,E10QW
105,Spitalfields,51.5166,-0.075,United Kingdom,E01004310,E17PN
106,Walthamstow,51.59,-0.0,United Kingdom,E01004471,E17
107,Chingford,51.631,0.016,United Kingdom,E01004353,E4
108,Leyton,51.5606,-0.0155,United Kingdom,E01004429,E105SB
109,Wandsworth,51.455,-0.192,United Kingdom,E01004513,SW184AD
110,Balham,51.4434,-0.1525,United Kingdom,E01004545,SW129AX
111,Bolton,53.578,-2.4290000000000003,United Kingdom,E01004848,BL11RT
112,Farnworth,53.5452,-2.3999,United Kingdom,E01004860,BL49HS
113,Westhoughton,53.549,-2.529,United Kingdom,E01004936,BL5
114,Horwich,53.592,-2.54,United Kingdom,E01004883,BL65PS
115,Kearsley,53.53,-2.37,United Kingdom,E01004908,BL48SF
116,Little Lever,53.563,-2.369,United Kingdom,E01004913,BL31HY
117,Blackrod,53.5898,-2.5809,United Kingdom,E01004782,BL65TJ
118,Bury,53.593,-2.298,United Kingdom,E01005027,BL90DA
119,Prestwich,53.5333,-2.2833,United Kingdom,E01005036,M251BT
120,Radcliffe,53.5615,-2.3268,United Kingdom,E01005008,M262TT
121,Whitefield,53.5521,-2.2992,United Kingdom,E01004989,M457GX
122,Ramsbottom,53.6484,-2.3169,United Kingdom,E01005014,BL09AG
123,Tottington,53.613,-2.339,United Kingdom,E01005051,BL83LZ
124,Manchester,53.4794,-2.2453,United Kingdom,E01033677,M25PE
125,Wythenshawe,53.392,-2.264,United Kingdom,E01005087,M228EX
126,Northenden,53.4075,-2.2583,United Kingdom,E01005268,M224FZ
127,Baguley,53.399,-2.276,United Kingdom,E01005112,M231AF
128,Moston,53.5156,-2.1848,United Kingdom,E01005249,M405HG
129,Oldham,53.5444,-2.1169,United Kingdom,E01005350,OL11NW
130,Royton,53.566,-2.121,United Kingdom,E01005392,OL26QW
131,Failsworth,53.5102,-2.1575,United Kingdom,E01005371,M359PE
132,Hollinwood,53.5183,-2.144,United Kingdom,E01005362,OL83RB
133,Lees,53.538,-2.069,United Kingdom,E01005419,OL44NA
134,Rochdale,53.6136,-2.161,United Kingdom,E01005484,OL161QT
135,Middleton,53.555,-2.187,United Kingdom,E01005538,M242LU
136,Heywood,53.59,-2.219,United Kingdom,E01005504,OL101BA
137,Milnrow,53.6101,-2.1111,United Kingdom,E01005556,OL164HG
138,Castleton,53.5907,-2.1737,United Kingdom,E01005477,OL112TB
139,Littleborough,53.644,-2.0980000000000003,United Kingdom,E01005522,OL158AT
140,Wardle,53.647,-2.132,United Kingdom,E01005593,OL129LQ
141,Salford,53.483,-2.2931,United Kingdom,E01005654,M65TE
142,Eccles,53.4824,-2.339,United Kingdom,E01005599,M300EJ
143,Walkden,53.5239,-2.3991,United Kingdom,E01005708,M283NJ
144,Swinton,53.5122,-2.3412,United Kingdom,E01005686,M276BD
145,Irlam,53.445,-2.422,United Kingdom,E01005620,M446NA
146,Little Hulton,53.53,-2.418,United Kingdom,E01005704,M389WG
147,Pendlebury,53.5075,-2.3154,United Kingdom,E01005699,M274HX
148,Barton upon Irwell,53.476000000000006,-2.36,United Kingdom,E01005603,M307AG
149,Worsley,53.5093,-2.3845,United Kingdom,E01005740,M282QP
150,Stockport,53.4083,-2.1494,United Kingdom,E01005872,SK14BT
151,Reddish,53.4383,-2.1613,United Kingdom,E01005893,SK5
152,Cheadle Hulme,53.3761,-2.1897,United Kingdom,E01005786,SK85AE
153,Marple,53.397,-2.061,United Kingdom,E01005885,SK66BE
154,Bramhall,53.357,-2.164,United Kingdom,E01005925,SK72DJ
155,Hazel Grove,53.375,-2.111,United Kingdom,E01005841,SK76AD
156,Bredbury,53.42,-2.113,United Kingdom,E01005751,SK62PF
157,Cheadle,53.3933,-2.2113,United Kingdom,E01005774,SK81ED
158,Disley,53.357,-2.043,United Kingdom,E01018587,SK122NP
159,Ashton,53.4897,-2.0952,United Kingdom,E01005948,OL67FY
160,Denton,53.4554,-2.1122,United Kingdom,E01005974,M34
161,Hyde,53.4474,-2.082,United Kingdom,E01006039,SK141DN
162,Stalybridge,53.4834,-2.04,United Kingdom,E01006069,SK152PL
163,Droylsden,53.4828,-2.1582,United Kingdom,E01006002,M436QD
164,Dukinfield,53.4739,-2.0828,United Kingdom,E01006011,SK164AS
165,Mossley,53.5147,-2.0387,United Kingdom,E01006058,OL59HL
166,Sale,53.424,-2.322,United Kingdom,E01006160,M337XL
167,Altrincham,53.3838,-2.3547,United Kingdom,E01006077,WA142QH
168,Stretford,53.4466,-2.3086,United Kingdom,E01006180,M328AE
169,Urmston,53.4487,-2.3747,United Kingdom,E01006128,M415QF
170,Davyhulme,53.4559,-2.3683,United Kingdom,E01006123,M415TP
171,Timperley,53.387,-2.3280000000000003,United Kingdom,E01006140,WA157QQ
172,Flixton,53.447,-2.391,United Kingdom,E01006130,M416QB
173,Bowdon,53.37600000000001,-2.366,United Kingdom,E01006085,WA143LY
174,Partington,53.42,-2.43,United Kingdom,E01006104,M314PU
175,Wigan,53.5448,-2.6318,United Kingdom,E01006369,WN11DY
176,Leigh,53.4975,-2.515,United Kingdom,E01006333,WN71AG
177,Hindley,53.5355,-2.5658,United Kingdom,E01006275,WN23NJ
178,Golborne,53.4758,-2.5943,United Kingdom,E01006342,WA33LU
179,Ashton in Makerfield,53.487,-2.641,United Kingdom,E01006265,WN49AZ
180,Atherton,53.523,-2.495,United Kingdom,E01006244,M460AB
181,Tyldesley,53.5166,-2.4667,United Kingdom,E01006295,M298AX
182,Ince-in-Makerfield,53.5402,-2.599,United Kingdom,E01006308,WN22TA
183,Lowton,53.471,-2.569,United Kingdom,E01006347,WA32PJ
184,Pemberton,53.536,-2.6738,United Kingdom,E01006359,WN59JY
185,Standish,53.58600000000001,-2.664,United Kingdom,E01006238,WN60TQ
186,Bryn,53.499,-2.657,United Kingdom,E01006266,WN40LW
187,Astley,53.5008,-2.4454,United Kingdom,E01006250,M297HU
188,Shevington,53.572,-2.69,United Kingdom,E01006312,WN68BZ
189,Abram,53.508,-2.588,United Kingdom,E01006212,WN25RZ
190,Kirkby,53.4826,-2.892,United Kingdom,E01006455,L325TH
191,Huyton,53.41,-2.843,United Kingdom,E01006475,L369US
192,Halewood,53.3599,-2.84,United Kingdom,E01006427,L260TB
193,Knowsley,53.4498,-2.8501,United Kingdom,E01006438,L340EW
194,Prescot,53.422,-2.814,United Kingdom,E01006464,L341NS
195,Roby,53.413,-2.852,United Kingdom,E01006451,L369WE
196,Liverpool,53.4,-2.9833,United Kingdom,E01033754,L15BY
197,Fazakerley,53.4676,-2.9408,United Kingdom,E01006654,L99DB
198,Deysbrook,53.429,-2.934,United Kingdom,E01006763,L13
199,West Derby,53.4338,-2.907,United Kingdom,E01006619,L125EB
200,Childwall,53.395,-2.881,United Kingdom,E01006580,L25
201,Eastham,53.313,-2.962,United Kingdom,E01007167,CH620AH
202,Dingle,53.3774,-2.9613,United Kingdom,E01032505,L17
203,Woolton,53.374,-2.865,United Kingdom,E01006798,L25
204,Aintree,53.4793,-2.9373,United Kingdom,E01007044,L9
205,Saint Helens,53.4541,-2.7461,United Kingdom,E01006877,WA102DX
206,Newton in Makerfield,53.45,-2.633,United Kingdom,E01006860,WA128LU
207,Thatto Heath,53.4352,-2.7481,United Kingdom,E01006907,WA95SB
208,Haydock,53.4678,-2.6609,United Kingdom,E01006842,WA110TP
209,Rainhill,53.4157,-2.7625,United Kingdom,E01006894,L350NU
210,Earlestown,53.45,-2.65,United Kingdom,E01006865,WA129GU
211,Eccleston,53.4539,-2.7748,United Kingdom,E01006822,WA105EF
212,Rainford,53.503,-2.783,United Kingdom,E01006882,WA118AR
213,Billinge,53.4932,-2.7129,United Kingdom,E01006807,WN57QE
214,Garswood,53.488,-2.67,United Kingdom,E01006808,WN40RX
215,Southport,53.6475,-3.0053,United Kingdom,E01006968,PR81AS
216,Bootle,53.4457,-2.9891,United Kingdom,E01006961,L207EW
217,Crosby,53.4872,-3.0343,United Kingdom,E01007109,L233AQ
218,Formby,53.5586,-3.0666,United Kingdom,E01007081,L373HE
219,Litherland,53.4727,-2.999,United Kingdom,E01006978,L219HP
220,Maghull,53.5174,-2.9449,United Kingdom,E01007095,L310AJ
221,Ainsdale,53.6021,-3.0405,United Kingdom,E01006921,PR83HL
222,Blundellsands,53.48,-3.05,United Kingdom,E01006942,L236SX
223,Lydiate,53.536,-2.959,United Kingdom,E01007067,L314EQ
224,Melling,53.495,-2.927,United Kingdom,E01007044,L311EP
225,Birkenhead,53.393,-3.014,United Kingdom,E01007126,CH415EU
226,Wallasey,53.4158,-3.0233,United Kingdom,E01007277,CH448BT
227,Moreton,53.401,-3.111,United Kingdom,E01007208,CH469QA
228,Upton,53.385,-3.099,United Kingdom,E01007298,CH490UB
229,Bebington,53.35,-3.003,United Kingdom,E01007152,CH637TD
230,Seacombe,53.409,-3.029,United Kingdom,E01007272,CH447HU
231,Bidston,53.402,-3.0780000000000003,United Kingdom,E01007120,CH437YF
232,New Brighton,53.432,-3.049,United Kingdom,E01007229,CH455BN
233,Bromborough,53.33600000000001,-2.978,United Kingdom,E01007135,CH623PB
234,Rock Ferry,53.37300000000001,-3.008,United Kingdom,E01007295,CH422AS
235,Heswall,53.328,-3.099,United Kingdom,E01007184,CH604RB
236,Woodchurch,53.375,-3.084,United Kingdom,E01007303,CH497NZ
237,Hoylake,53.39,-3.18,United Kingdom,E01007194,CH474AA
238,Great Meols,53.4014,-3.1553,United Kingdom,E01007199,CH477BT
239,Barnsley,53.5537,-1.4791,United Kingdom,E01007336,S702JJ
240,Penistone,53.525,-1.629,United Kingdom,E01007429,S366DY
241,Darton,53.585,-1.5325,United Kingdom,E01007358,S755HQ
242,Wombwell,53.51600000000001,-1.4,United Kingdom,E01007451,S730JY
243,Hoyland Nether,53.4985,-1.4406,United Kingdom,E01007389,S749AT
244,Cudworth,53.5784,-1.4149,United Kingdom,E01007345,S728SY
245,Royston,53.61,-1.45,United Kingdom,E01007438,S714FE
246,Darfield,53.538,-1.3812,United Kingdom,E01007352,S739DZ
247,Dodworth,53.5417,-1.5214,United Kingdom,E01007383,S753RF
248,Worsborough,53.52,-1.47,United Kingdom,E01007398,S705LW
249,Bolton upon Dearne,53.5197,-1.3148,United Kingdom,E01007365,S638HB
250,Silkstone,53.5489,-1.5634,United Kingdom,E01007419,S754
251,Doncaster,53.515,-1.133,United Kingdom,E01007530,DN45AA
252,Hatfield,53.58,-1.0,United Kingdom,E01007553,DN76QE
253,Adwick le Street,53.5677,-1.1931,United Kingdom,E01007464,DN67SF
254,Mexborough,53.4992,-1.283,United Kingdom,E01007576,S640AU
255,Armthorpe,53.5352,-1.0522,United Kingdom,E01007482,Armthorpecentral postcode placeholder
256,Conisbrough,53.479,-1.227,United Kingdom,E01007537,DN122AS
257,Rossington,53.4759,-1.0613,United Kingdom,E01007591,DN110XY
258,Harlington,53.481,-1.182,United Kingdom,E01007548,DN121JH
259,Stainforth,53.5958,-1.0253,United Kingdom,E01007628,DN75EX
260,Askern,53.6167,-1.15,United Kingdom,E01007492,DN60EW
261,Tickhill,53.4305,-1.1135,United Kingdom,E01007616,DN119NP
262,Norton,53.633,-1.175,United Kingdom,E01007487,DN69ES
263,Carcroft,53.58,-1.17,United Kingdom,E01007473,DN67DU
264,Skellow,53.58,-1.19,United Kingdom,E01007474,DN67UP
265,Warmsworth,53.5,-1.18,United Kingdom,E01007551,DN49LX
266,Auckley,53.502,-1.018,United Kingdom,E01007600,DN93JU
267,Brodsworth,53.5596,-1.237,United Kingdom,E01007587,DN57XN
268,Cantley,53.51,-1.06,United Kingdom,E01007604,DN46QT
269,Rotherham,53.43,-1.357,United Kingdom,E01007714,S601FF
270,Rawmarsh,53.4636,-1.3439,United Kingdom,E01007782,S627BQ
271,Maltby,53.426,-1.21,United Kingdom,E01007762,S668AR
272,Swinton,53.4877,-1.3149,United Kingdom,E01007796,S648NB
273,Swallownest,53.3623,-1.3251,United Kingdom,E01007671,S264NF
274,Wath upon Dearne,53.5022,-1.3402,United Kingdom,E01007821,S637PU
275,Dinnington,53.3667,-1.2,United Kingdom,E01007791,S252PG
276,Bramley,53.4253,-1.2648,United Kingdom,E01007684,S662YG
277,Wickersley,53.4199,-1.2792,United Kingdom,E01007686,S661FA
278,Whiston,53.4,-1.32,United Kingdom,E01007812,S604NS
279,Thrybergh,53.45,-1.3,United Kingdom,E01007719,S654ET
280,Treeton,53.3845,-1.3513,United Kingdom,E01007701,S605PZ
281,West Melton,53.5035,-1.3618,United Kingdom,E01007697,S636QS
282,Kilnhurst,53.4703,-1.3057,United Kingdom,E01007772,S645SL
283,Elsecar,53.496,-1.412,United Kingdom,E01007394,S748AY
284,Sheffield,53.3833,-1.4667,United Kingdom,E01033264,S12GH
285,Ecclesfield,53.4429,-1.4698,United Kingdom,E01008138,S359YE
286,Ecclesall,53.362,-1.4980000000000002,United Kingdom,E01008048,S119BF
287,Fulwood,53.365,-1.544,United Kingdom,E01007958,S10
288,Woodhouse,53.358,-1.3730000000000002,United Kingdom,E01007964,S13
289,Mosbrough,53.325,-1.362,United Kingdom,E01008024,S205AH
290,Stannington,53.396,-1.536,United Kingdom,E01008131,S66AS
291,Chapeltown,53.462,-1.466,United Kingdom,E01007894,S352UU
292,Handsworth,53.37,-1.4,United Kingdom,E01007910,S138HH
293,Stocksbridge,53.478,-1.588,United Kingdom,E01008142,S362AL
294,Wadsley,53.41,-1.52,United Kingdom,E01007988,S64BT
295,Dore,53.3268,-1.5345,United Kingdom,E01007920,S173NS
296,Grenoside,53.441,-1.5019999999999998,United Kingdom,E01008141,S30
297,Oughtibridge,53.43600000000001,-1.539,United Kingdom,E01008140,S350FL
298,Gateshead,54.95,-1.6,United Kingdom,E01008251,NE84JB
299,Whickham,54.9456,-1.6726,United Kingdom,E01008264,NE164EF
300,Blaydon,54.963,-1.7187,United Kingdom,E01008177,NE214BA
301,Newburn,54.983,-1.743,United Kingdom,E01008404,NE158PL
302,Felling,54.95,-1.564,United Kingdom,E01008216,NE109PQ
303,Birtley,54.9,-1.577,United Kingdom,E01008222,DH31LX
304,Rowlands Gill,54.9209,-1.7441,United Kingdom,E01008185,NE391LE
305,Sheriff Hill,54.93899999999999,-1.586,United Kingdom,E01008219,NE96QN
306,Lamesley,54.916,-1.608,United Kingdom,E01008194,NE110EU
307,Swalwell,54.95399999999999,-1.6840000000000002,United Kingdom,E01008263,NE163DE
308,Newcastle,55.0077,-1.6578,United Kingdom,E01008339,NE33RD
309,Gosforth,55.007,-1.6230000000000002,United Kingdom,E01008355,NE31ED
310,Longbenton,55.0,-1.57,United Kingdom,E01008316,NE77LH
311,Lemington,54.972,-1.723,United Kingdom,E01008387,NE214LP
312,Tynemouth,55.017,-1.423,United Kingdom,E01008558,NE304BT
313,Wallsend,54.99100000000001,-1.534,United Kingdom,E01008536,NE288HU
314,Whitley Bay,55.0456,-1.4443,United Kingdom,E01008584,NE261AG
315,North Shields,55.0097,-1.4448,United Kingdom,E01008524,NE301AL
316,Killingworth,55.0318,-1.5557,United Kingdom,E01008506,NE126BP
317,Monkseaton,55.043,-1.459,United Kingdom,E01008520,NE263LL
318,Cullercoats,55.033,-1.433,United Kingdom,E01008496,NE304PB
319,Shiremoor,55.0366,-1.5048,United Kingdom,E01008567,NE270TA
320,South Shields,54.995,-1.43,United Kingdom,E01008596,NE334NU
321,Jarrow,54.9797,-1.4804,United Kingdom,E01008600,NE323AR
322,Hebburn,54.9718,-1.5128,United Kingdom,E01008646,NE312UN
323,West Boldon,54.9447,-1.4409,United Kingdom,E01008614,NE360NU
324,Harton,54.881,-1.534,United Kingdom,E01008865,NE389AJ
325,Sunderland,54.9061,-1.3811,United Kingdom,E01008703,SR11RR
326,Washington,54.9,-1.52,United Kingdom,E01008852,NE387RJ
327,Houghton le Spring,54.841,-1.4680000000000002,United Kingdom,E01008715,DH44DH
328,Hetton le Hole,54.8208,-1.4488,United Kingdom,E01008742,DH59HW
329,Southwick,54.9193,-1.4062,United Kingdom,E01033075,SR52DZ
330,Ryhope,54.8679,-1.3698,United Kingdom,E01008769,SR20SY
331,Usworth,54.94,-1.55,United Kingdom,E01008231,NE108NY
332,Birmingham,52.48,-1.9025,United Kingdom,E01033620,B24AJ
333,Sutton Coldfield,52.563,-1.822,United Kingdom,E01009449,B721SY
334,Small Heath,52.4629,-1.8542,United Kingdom,E01009338,B10
335,Bournville,52.4299,-1.9355,United Kingdom,E01008951,Bournvillecentral postcode placeholder
336,Northfield,52.408,-1.963,United Kingdom,E01009210,B31
337,Longbridge,52.395,-1.979,United Kingdom,E01009166,B314LH
338,Kings Norton,52.4072,-1.9272,United Kingdom,E01009119,B389AS
339,Perry Barr,52.5249,-1.9042,United Kingdom,E01009242,B421UB
340,Harborne,52.46,-1.95,United Kingdom,E01009069,B179LP
341,Erdington,52.5236,-1.8378,United Kingdom,E01009007,B236BG
342,Castle Bromwich,52.505,-1.7856,United Kingdom,E01010122,B369AY
343,Coventry,52.4081,-1.5106,United Kingdom,E01009642,Coventrycentral postcode placeholder
344,Exhall,52.47,-1.48,United Kingdom,E01031098,CV79BG
345,Dudley,52.508,-2.089,United Kingdom,E01009881,DY11SH
346,Stourbridge,52.4575,-2.1479,United Kingdom,E01009906,DY8
347,Halesowen,52.4502,-2.0509,United Kingdom,E01009733,B633BD
348,Tipton,52.5259,-2.0751,United Kingdom,E01010068,DY48EA
349,Netherton,52.4908,-2.0835,United Kingdom,E01009842,DY29PY
350,Brierley Hill,52.4795,-2.1245,United Kingdom,E01009744,DY5
351,Amblecote,52.46,-2.16,United Kingdom,E01009905,DY83PZ
352,Wollaston,52.4619,-2.1663,United Kingdom,E01009904,DY84QP
353,Gornalwood,52.523,-2.124,United Kingdom,E01009781,DY32EG
354,Wordsley,52.483,-2.15,United Kingdom,E01009911,DY68NY
355,Coseley,52.55,-2.083,United Kingdom,E01009763,WV148SL
356,Lye,52.459,-2.116,United Kingdom,E01009836,DY9
357,Sedgley,52.54,-2.123,United Kingdom,E01009773,DY33SD
358,West Bromwich,52.519,-1.995,United Kingdom,E01010106,B708NS
359,Rowley Regis,52.48,-2.06,United Kingdom,E01010039,B645PT
360,Oldbury,52.505,-2.0159,United Kingdom,E01010017,B693AF
361,Smethwick,52.4928,-1.9682,United Kingdom,E01010057,B663BW
362,Solihull,52.413,-1.778,United Kingdom,E01010198,B913SR
363,Sheldon,52.45,-1.7666,United Kingdom,E01009320,B92
364,Bickenhill,52.43899999999999,-1.725,United Kingdom,E01010109,B920DR
365,Olton,52.4377,-1.8058,United Kingdom,E01010177,B92
366,Dorridge,52.372,-1.7554,United Kingdom,E01010186,B938DX
367,Knowle,52.3881,-1.7318,United Kingdom,E01010151,B930JA
368,Marston Green,52.465,-1.74,United Kingdom,E01010112,B377EX
369,Berkswell,52.409,-1.642,United Kingdom,E01010168,CV77BL
370,Meriden,52.4379,-1.6496,United Kingdom,E01010165,CV77LN
371,Walsall,52.58,-1.98,United Kingdom,E01010370,WS13DX
372,Aldridge,52.606,-1.9179,United Kingdom,E01010243,WS98QB
373,Willenhall,52.5798,-2.0605,United Kingdom,E01010418,WV133EQ
374,Darlaston,52.5708,-2.0457,United Kingdom,E01010312,WS108NZ
375,Bloxwich,52.614,-2.004,United Kingdom,E01010287,WS33JX
376,Streetly,52.577,-1.884,United Kingdom,E01010387,B74
377,Walsall Wood,52.6277,-1.9301,United Kingdom,E01010254,WS99NN
378,Brownhills,52.647,-1.933,United Kingdom,E01010308,WS86HH
379,Rushall,52.611,-1.957,United Kingdom,E01010321,WS41NJ
380,Pelsall,52.631,-1.972,United Kingdom,E01010347,WS34PE
381,Wolverhampton,52.5833,-2.1333,United Kingdom,E01010464,WV14LP
382,Bilston,52.566,-2.0728,United Kingdom,E01010422,WV147NB
383,Wednesfield,52.5998,-2.0817,United Kingdom,E01010474,WV111SZ
384,Tettenhall,52.5983,-2.168,United Kingdom,E01010547,WV68QS
385,Bushbury,52.62,-2.113,United Kingdom,E01010441,WV108JY
386,Keighley,53.867,-1.911,United Kingdom,E01010710,BD212JP
387,Thornton,53.7898,-1.8504,United Kingdom,E01010798,BD133JX
388,Clayton,53.782,-1.8135,United Kingdom,E01010637,BD146LJ
389,Bingley,53.8509,-1.838,United Kingdom,E01010585,BD164BG
390,Shipley,53.833,-1.777,United Kingdom,E01033689,BD183QD
391,Baildon,53.851000000000006,-1.763,United Kingdom,E01010574,BD176NP
392,Wyke,53.7369,-1.77,United Kingdom,E01010871,BD128QH
393,Ilkley,53.925,-1.822,United Kingdom,E01010695,LS298HQ
394,Wibsey,53.7672,-1.7728,United Kingdom,E01010749,BD61JU
395,Silsden,53.914,-1.937,United Kingdom,E01010640,BD200PA
396,Burley in Wharfedale,53.9137,-1.7480000000000002,United Kingdom,E01010769,LS297BU
397,Haworth,53.83,-1.96,United Kingdom,E01010856,BD220EJ
398,Utley,53.88,-1.91,United Kingdom,E01010728,BD206BJ
399,Wilsden,53.8167,-1.8667,United Kingdom,E01010593,BD150DB
400,Menston,53.8912,-1.7344,United Kingdom,E01010773,LS296JJ
401,Steeton,53.896,-1.948,United Kingdom,E01010645,BD206RL
402,Addingham,53.9333,-1.8833,United Kingdom,E01010647,LS290QQ
403,Denholme,53.802,-1.894,United Kingdom,E01010594,BD134BP
404,Cullingworth,53.8247,-1.9027,United Kingdom,E01010590,BD135HR
405,Oxenhope,53.812,-1.952,United Kingdom,E01010858,BD229JS
406,Halifax,53.725,-1.863,United Kingdom,E01010994,HX11YR
407,Brighouse,53.707,-1.794,United Kingdom,E01010875,HD62RP
408,Queensbury,53.7683,-1.8453,United Kingdom,E01010753,BD132PA
409,Todmorden,53.713,-2.096,United Kingdom,E01010983,OL145QE
410,Ovenden,53.7432,-1.8779,United Kingdom,E01010940,HX36QP
411,Sowerby Bridge,53.71,-1.91,United Kingdom,E01010980,HX62LF
412,Elland,53.683,-1.84,United Kingdom,E01010893,HX50AT
413,Greetland,53.6869,-1.8714,United Kingdom,E01010900,HX48ND
414,Stainland,53.6728,-1.8805,United Kingdom,E01010896,HX49HF
415,Hipperholme,53.7258,-1.812,United Kingdom,E01010909,HX38NB
416,Ripponden,53.672,-1.946,United Kingdom,E01010954,HX6
417,Mytholmroyd,53.73,-1.981,United Kingdom,E01010919,HX75DS
418,Luddenden Foot,53.7178,-1.9381,United Kingdom,E01010922,HX26BX
419,Huddersfield,53.645,-1.7798,United Kingdom,E01011229,HD12SQ
420,Dewsbury,53.691,-1.633,United Kingdom,E01011130,WF131HL
421,Batley,53.716,-1.6269999999999998,United Kingdom,E01011023,WF175NT
422,Mirfield,53.6807,-1.6888,United Kingdom,E01011218,WF149PH
423,Liversedge,53.7067,-1.69,United Kingdom,E01011250,WF157HP
424,Almondbury,53.6344,-1.7489,United Kingdom,E01011010,HD58UU
425,Golcar,53.6378,-1.8457,United Kingdom,E01011147,HD74DT
426,Heckmondwike,53.708,-1.67,United Kingdom,E01011167,WF160AQ
427,Cleckheaton,53.725,-1.719,United Kingdom,E01011060,BD193HB
428,Denby Dale,53.572,-1.655,United Kingdom,E01011116,HD88TL
429,Birstall,53.7343,-1.6609,United Kingdom,E01011059,WF179RD
430,Meltham,53.592,-1.85,United Kingdom,E01011175,HD94NJ
431,Thornhill,53.6622,-1.6124,United Kingdom,E01011256,WF120JA
432,Honley,53.6027,-1.7921,United Kingdom,E01011172,HD96AG
433,Holmfirth,53.57,-1.787,United Kingdom,E01011181,HD97DB
434,Skelmanthorpe,53.591,-1.649,United Kingdom,E01011114,HD89DF
435,Kirkburton,53.61,-1.703,United Kingdom,E01011196,HD80RU
436,Linthwaite,53.6264,-1.8461,United Kingdom,E01011077,HD75TD
437,Marsden,53.6011,-1.9267,United Kingdom,E01011074,HD76BJ
438,Leeds,53.7997,-1.5492,United Kingdom,E01033008,LS19SB
439,Morley,53.7492,-1.6023,United Kingdom,E01011533,LS279DH
440,Farnley,53.7876,-1.6159,United Kingdom,E01011735,LS125BU
441,Calverley,53.8266,-1.6908,United Kingdom,E01011590,LS28
442,Pudsey,53.797,-1.663,United Kingdom,E01011612,LS287DR
443,Guiseley,53.875,-1.706,United Kingdom,E01011267,LS20
444,Yeadon,53.869,-1.6880000000000002,United Kingdom,E01011274,LS197PA
445,Woodlesford,53.7567,-1.453,United Kingdom,E01011638,LS268RN
446,Kirkstall,53.816,-1.602,United Kingdom,E01011477,LS53AQ
447,Rothwell,53.7485,-1.4780000000000002,United Kingdom,E01011629,LS260QB
448,Wetherby,53.9276,-1.3839,United Kingdom,E01011705,LS226RE
449,Garforth,53.792,-1.388,United Kingdom,E01011396,LS251EH
450,Adel,53.8489,-1.5849,United Kingdom,E01011380,LS16
451,Horsforth,53.8341,-1.6429,United Kingdom,E01011465,LS18
452,Seacroft,53.8222,-1.4599,United Kingdom,E01011661,LS146JD
453,Otley,53.905,-1.6869999999999998,United Kingdom,E01011572,LS21
454,Kippax,53.7669,-1.3705,United Kingdom,E01011304,LS257AH
455,Cross Gates,53.8063,-1.4506,United Kingdom,E01011408,LS158ET
456,Gildersome,53.75899999999999,-1.6322,United Kingdom,E01011519,LS277HX
457,Drighlington,53.7568,-1.6616,United Kingdom,E01011521,BD111AT
458,Boston Spa,53.904,-1.35,United Kingdom,E01011709,LS23
459,Harewood,53.9,-1.51,United Kingdom,E01011561,LS179LE
460,Bramhope,53.8829,-1.6095,United Kingdom,E01032504,LS169EX
461,Swillington,53.768,-1.4201,United Kingdom,E01011391,LS268DJ
462,Collingham,53.904,-1.4139,United Kingdom,E01011696,LS22
463,Wakefield,53.68,-1.49,United Kingdom,E01011916,WF14PW
464,Castleford,53.716,-1.356,United Kingdom,E01011763,WF105SQ
465,Pontefract,53.691,-1.3119999999999998,United Kingdom,E01011837,WF81AL
466,Ossett,53.68,-1.58,United Kingdom,E01011830,WF58PZ
467,Normanton,53.697,-1.416,United Kingdom,E01011822,WF61HT
468,Hemsworth,53.61,-1.35,United Kingdom,E01011790,WF94BB
469,Stanley,53.7145,-1.476,United Kingdom,E01011878,WF34HS
470,Featherstone,53.7,-1.37,United Kingdom,E01011775,WF76JD
471,Knottingley,53.705,-1.249,United Kingdom,E01011808,WF110JH
472,Horbury,53.6595,-1.5566,United Kingdom,E01011799,WF45LJ
473,Crigglestone,53.644,-1.5226,United Kingdom,E01011929,WF43LN
474,High Ackworth,53.6408,-1.3364,United Kingdom,E01011770,WF77DB
475,South Elmsall,53.5959,-1.2726,United Kingdom,E01011860,WF92SR
476,Altofts,53.697,-1.416,United Kingdom,E01011822,WF61HT
477,Crofton,53.657,-1.4269999999999998,United Kingdom,E01011765,WF41HN
478,North Elmsall,53.609,-1.2819999999999998,United Kingdom,E01011855,WF92ED
479,Upton,53.62,-1.29,United Kingdom,E01011858,WF91PD
480,Ryhill,53.6168,-1.4021,United Kingdom,E01011784,S729DE
481,Hartlepool,54.69,-1.21,United Kingdom,E01011974,TS240XR
482,Seaton Carew,54.6628,-1.1888,United Kingdom,E01011996,TS251AR
483,Marton,54.5406,-1.2124,United Kingdom,E01012051,TS43QE
484,Ormesby,54.5492,-1.1817,United Kingdom,E01012150,TS79PB
485,Nunthorpe,54.5287,-1.177,United Kingdom,E01012073,TS70BZ
486,Stainton,54.5211,-1.2595,United Kingdom,E01032553,TS8
487,Middlesbrough,54.5767,-1.2355,United Kingdom,E01012068,TS11JA
488,Redcar,54.618,-1.069,United Kingdom,E01012100,TS101ED
489,Guisborough,54.535,-1.0563,United Kingdom,E01012118,TS146AP
490,Skelton,54.5619,-0.9874,United Kingdom,E01012165,TS122HT
491,Loftus,54.5569,-0.8919,United Kingdom,E01033473,TS134SQ
492,Kirkleatham,54.5833,-1.0833,United Kingdom,E01012129,TS118HH
493,Eston,54.56,-1.144,United Kingdom,E01012111,TS69EG
494,Saltburn-by-the-Sea,54.5828,-0.9732,United Kingdom,E01012159,TS121AT
495,Brotton,54.56800000000001,-0.937,United Kingdom,E01012099,TS122PE
496,Grangetown,54.58,-1.144,United Kingdom,E01012114,TS67EU
497,Great Ayton,54.4957,-1.1292,United Kingdom,E01027599,TS96EF
498,Stockton-on-Tees,54.57,-1.32,United Kingdom,E01012254,TS190DE
499,Billingham,54.61,-1.27,United Kingdom,E01012214,TS234HU
500,Thornaby on Tees,54.5556,-1.3049,United Kingdom,E01012287,TS176PA
501,Yarm,54.505,-1.348,United Kingdom,E01012299,TS159EU
502,Darlington,54.527,-1.5526,United Kingdom,E01033484,DL11PN
503,Runcorn,53.341,-2.729,United Kingdom,E01012431,WA71BN
504,Widnes,53.363,-2.728,United Kingdom,E01012367,WA86DD
505,Weston,53.413,-2.798,United Kingdom,E01006505,L353JA
506,Warrington,53.3917,-2.5972,United Kingdom,E01033300,WA1
507,Great Sankey,53.3918,-2.6383,United Kingdom,E01012499,WA1
508,Culcheth,53.4517,-2.5218,United Kingdom,E01012474,WA34EE
509,Burtonwood,53.4302,-2.6614,United Kingdom,E01012470,WA54JJ
510,Appleton,53.3508,-2.5441,United Kingdom,E01012448,WA44TJ
511,Latchford,53.3796,-2.5645,United Kingdom,E01012507,WA41JL
512,Winwick,53.4306,-2.5976,United Kingdom,E01012468,WA28TA
513,Croft,53.437,-2.552,United Kingdom,E01012472,WA37HN
514,Blackburn,53.74800000000001,-2.482,United Kingdom,E01012644,BB1
515,Darwen,53.698,-2.461,United Kingdom,E01012650,BB33DB
516,Blackpool,53.8142,-3.0503,United Kingdom,E01012736,FY14QE
517,Bispham,53.852,-3.0410000000000004,United Kingdom,E01012667,FY20AJ
518,Kingston upon Hull,53.7444,-0.3325,United Kingdom,E01033109,HU11HP
519,Cottingham,53.7822,-0.4136,United Kingdom,E01012960,HU164DA
520,Sutton on Hull,53.7806,-0.3047,United Kingdom,E01012904,HU74TS
521,Bridlington,54.0819,-0.1923,United Kingdom,E01012948,YO153AH
522,Beverley,53.845,-0.4270000000000001,United Kingdom,E01013071,HU179BW
523,Goole,53.6992,-0.8692,United Kingdom,E01013000,DN145RQ
524,Hessle,53.7239,-0.4319,United Kingdom,E01013014,HU139JZ
525,Great Driffield,54.005,-0.4379999999999999,United Kingdom,E01012980,YO256PG
526,Hornsea,53.9108,-0.1676,United Kingdom,E01013051,HU181PB
527,Pocklington,53.9309,-0.7781,United Kingdom,E01013056,YO422AL
528,Willerby,53.7633,-0.4504,United Kingdom,E01013113,HU106DB
529,Hedon,53.7395,-0.1948,United Kingdom,E01013095,HU128HS
530,Market Weighton,53.8642,-0.6624,United Kingdom,E01013124,YO433NU
531,Withernsea,53.7285,0.0382,United Kingdom,E01013083,HU192HL
532,South Cave,53.769,-0.598,United Kingdom,E01012967,HU152AU
533,Howden,53.7441,-0.8634,United Kingdom,E01013015,DN147GS
534,North Ferriby,53.72,-0.5078,United Kingdom,E01013089,HU143DG
535,Swanland,53.7399,-0.4905,United Kingdom,E01013091,HU143QB
536,Stamford Bridge,53.989,-0.9125,United Kingdom,E01013061,YO411DB
537,Gilberdike,53.752,-0.7361,United Kingdom,E01013018,HU152TY
538,Thorngumbald,53.7208,-0.1715,United Kingdom,E01013101,HU129PB
539,Preston,53.7566,-0.1969,United Kingdom,E01013102,HU128UN
540,Holme upon Spalding Moor,53.8365,-0.7782,United Kingdom,E01013024,YO434EY
541,Grimsby,53.5595,-0.068,United Kingdom,E01013161,DN329PB
542,Cleethorpes,53.5533,-0.0215,United Kingdom,E01013152,DN350BB
543,Scartho,53.5399,-0.0926,United Kingdom,E01013192,DN332BT
544,Immingham,53.6139,-0.2183,United Kingdom,E01013178,DN401NG
545,Waltham,53.5165,-0.1021,United Kingdom,E01013213,DN370LJ
546,Humberston,53.5281,-0.0249,United Kingdom,E01013169,DN364DR
547,Laceby,53.541,-0.168,United Kingdom,E01013226,DN377DA
548,Healing,53.5739,-0.1639999999999999,United Kingdom,E01013223,DN417QD
549,Scunthorpe,53.5809,-0.6502,United Kingdom,E01013314,DN161LR
550,Barton upon Humber,53.6833,-0.45,United Kingdom,E01013256,DN185LE
551,Bottesford,53.5521,-0.6714,United Kingdom,E01013265,DN172GL
552,Broughton,53.5638,-0.5465,United Kingdom,E01013276,DN200AB
553,Brigg,53.5529,-0.485,United Kingdom,E01013273,DN208RE
554,Winterton,53.6549,-0.5979,United Kingdom,E01013288,DN159PS
555,Crowle,53.6073,-0.8321,United Kingdom,E01013249,DN174HW
556,Haxey,53.4868,-0.8462,United Kingdom,E01013250,DN92JU
557,Epworth,53.525,-0.82,United Kingdom,E01013244,DN91HD
558,Messingham,53.5273,-0.6535,United Kingdom,E01013327,DN173NU
559,Barrow upon Humber,53.675,-0.3818,United Kingdom,E01013305,DN197DD
560,Belton,53.553,-0.8166,United Kingdom,E01013242,DN91NJ
561,Burton upon Stather,53.6494,-0.6848,United Kingdom,E01013293,DN159DP
562,Kirton in Lindsey,53.4759,-0.5887,United Kingdom,E01013322,DN214LX
563,York,53.9583,-1.0803,United Kingdom,E01033070,YO19NR
564,Harrogate,53.9919,-1.5378,United Kingdom,E01027678,HG11JL
565,Scarborough,54.2773,-0.4017,United Kingdom,E01027854,YO112AB
566,Bridlington,54.0819,-0.1923,United Kingdom,E01012948,YO153AH
567,Beverley,53.845,-0.4270000000000001,United Kingdom,E01013071,HU179BW
568,Acomb,53.955,-1.126,United Kingdom,E01013445,YO243BW
569,Goole,53.6992,-0.8692,United Kingdom,E01013000,DN145RQ
570,Northallerton,54.3378,-1.4285,United Kingdom,E01027608,DL61BF
571,Ripon,54.13800000000001,-1.524,United Kingdom,E01027706,HG4
572,Knaresborough,54.0084,-1.467,United Kingdom,E01027669,HG58AE
573,Hessle,53.7239,-0.4319,United Kingdom,E01013014,HU139JZ
574,Selby,53.7818,-1.0703,United Kingdom,E01027909,YO84QB
575,Skipton,53.962,-2.017,United Kingdom,E01027577,BD231JR
576,Clifton,53.9721,-1.0979,United Kingdom,E01013346,YO306NN
577,Whitby,54.4858,-0.6206,United Kingdom,E01027870,YO213AG
578,Great Driffield,54.005,-0.4379999999999999,United Kingdom,E01012980,YO256PG
579,Huntington,53.9926,-1.043,United Kingdom,E01013409,YO329LB
580,Hornsea,53.9108,-0.1676,United Kingdom,E01013051,HU181PB
581,Haxby,54.01600000000001,-1.075,United Kingdom,E01013370,YO323HX
582,Richmond,54.403,-1.737,United Kingdom,E01027770,DL104QN
583,Pocklington,53.9309,-0.7781,United Kingdom,E01013056,YO422AL
584,Willerby,53.7633,-0.4504,United Kingdom,E01013113,HU106DB
585,Hedon,53.7395,-0.1948,United Kingdom,E01013095,HU128HS
586,Filey,54.2101,-0.2893,United Kingdom,E01027827,YO149EA
587,Pickering,54.2439,-0.7759999999999999,United Kingdom,E01027795,YO187DG
588,Sherburn in Elmet,53.7973,-1.2331,United Kingdom,E01027916,LS256EW
589,Market Weighton,53.8642,-0.6624,United Kingdom,E01013124,YO433NU
590,Withernsea,53.7285,0.0382,United Kingdom,E01013083,HU192HL
591,Strensall,54.0401,-1.0344,United Kingdom,E01013438,YO325XR
592,Tadcaster,53.8852,-1.262,United Kingdom,E01027918,LS24
593,Pannal,53.9609,-1.5362,United Kingdom,E01027698,HG31JZ
594,Bilton,54.0099,-1.5359,United Kingdom,E01027638,HG13BZ
595,Brayton,53.7682,-1.0907,United Kingdom,E01027880,YO89EW
596,Thirsk,54.2327,-1.342,United Kingdom,E01027630,YO71DA
597,Malton,54.139,-0.792,United Kingdom,E01027785,YO177LB
598,South Cave,53.769,-0.598,United Kingdom,E01012967,HU152AU
599,Heslington,53.9448,-1.0434,United Kingdom,E01013398,YO105JT
600,Stokesley,54.4712,-1.1905,United Kingdom,E01027625,TS95EW
601,Easingwold,54.1198,-1.1897,United Kingdom,E01027594,YO613DB
602,Earby,53.914,-2.144,United Kingdom,E01025201,BB18
603,Seamer,54.2383,-0.441,United Kingdom,E01027859,YO124QU
604,Copmanthorpe,53.916,-1.133,United Kingdom,E01013423,YO233YA
605,Howden,53.7441,-0.8634,United Kingdom,E01013015,DN147GS
606,North Ferriby,53.72,-0.5078,United Kingdom,E01013089,HU143DG
607,Swanland,53.7399,-0.4905,United Kingdom,E01013091,HU143QB
608,Sutton-in-Craven,53.892,-1.993,United Kingdom,E01027583,BD207NX
609,Wigginton,54.0187,-1.0936,United Kingdom,E01013377,YO322PU
610,Stamford Bridge,53.989,-0.9125,United Kingdom,E01013061,YO411DB
611,Gilberdike,53.752,-0.7361,United Kingdom,E01013018,HU152TY
612,Boroughbridge,54.095,-1.398,United Kingdom,E01027645,YO519AF
613,Thorngumbald,53.7208,-0.1715,United Kingdom,E01013101,HU129PB
614,Preston,53.7566,-0.1969,United Kingdom,E01013102,HU128UN
615,Bishopthorpe,53.9187,-1.1008,United Kingdom,E01013340,YO232RX
616,Holme upon Spalding Moor,53.8365,-0.7782,United Kingdom,E01013024,YO434EY
617,Bedale,54.288,-1.591,United Kingdom,E01027588,DL82BJ
618,Catterick,54.377,-1.63,United Kingdom,E01027747,DL107LJ
619,Hunmanby,54.1818,-0.3175,United Kingdom,E01027834,YO140NS
620,Kirkby Moorside,54.269,-0.93,United Kingdom,E01027784,YO626BE
621,High Bentham,54.118,-2.51,United Kingdom,E01027559,LA27HF
622,Fulford,53.938,-1.073,United Kingdom,E01013362,YO104HJ
623,New Earswick,53.992,-1.0724,United Kingdom,E01013410,YO324AW
624,Settle,54.0721,-2.2819,United Kingdom,E01027572,BD249DE
625,Derby,52.9167,-1.4667,United Kingdom,E01033166,DE12RJ
626,Ilkeston,52.971,-1.3090000000000002,United Kingdom,E01019674,DE78GS
627,Long Eaton,52.898,-1.271,United Kingdom,E01019682,NG101JQ
628,Glossop,53.44300000000001,-1.949,United Kingdom,E01019739,SK138HY
629,Swadlincote,52.774,-1.557,United Kingdom,E01019877,DE110AG
630,Littleover,52.90600000000001,-1.505,United Kingdom,E01013546,DE236FS
631,Alfreton,53.097,-1.38,United Kingdom,E01019403,DE557HW
632,Buxton,53.25899999999999,-1.911,United Kingdom,E01019717,SK176BJ
633,Belper,53.029,-1.475,United Kingdom,E01019409,DE561GQ
634,Dronfield,53.3024,-1.4664,United Kingdom,E01019786,S182FZ
635,Ripley,53.05,-1.4069999999999998,United Kingdom,E01019461,DE53AA
636,Staveley,53.2694,-1.3484,United Kingdom,E01019565,S433TR
637,Mickleover,52.901,-1.5519999999999998,United Kingdom,E01013563,DE30AD
638,Heanor,53.014,-1.354,United Kingdom,E01019440,DE757AA
639,Chellaston,52.8671,-1.4384,United Kingdom,E01013515,DE735UB
640,Mackworth,52.9277,-1.5373,United Kingdom,E01013549,DE224NS
641,Allestree,52.9519,-1.4856,United Kingdom,E01013461,DE222FR
642,Chaddesden,52.9301,-1.4383,United Kingdom,E01013505,DE216HT
643,Shirebrook,53.2048,-1.2197,United Kingdom,E01019510,NG208JH
644,Spondon,52.92,-1.401,United Kingdom,E01013592,DE217DD
645,New Mills,53.367,-2.007,United Kingdom,E01019746,SK223BW
646,Bolsover,53.2304,-1.2875,United Kingdom,E01019490,S446DE
647,Eckington,53.308,-1.3643,United Kingdom,E01019792,S214DR
648,Matlock,53.14,-1.55,United Kingdom,E01019625,DE43EH
649,Killamarsh,53.3205,-1.3116,United Kingdom,E01019807,S211AB
650,South Normanton,53.107,-1.3430000000000002,United Kingdom,E01019514,DE552BP
651,Clay Cross,53.1637,-1.4128,United Kingdom,E01019775,S459JR
652,Brimington,53.258,-1.3905,United Kingdom,E01019534,S431EE
653,Chapel en le Frith,53.322,-1.917,United Kingdom,E01019719,SK230HR
654,Toton,52.907,-1.254,United Kingdom,E01028138,NG96GA
655,Newbold,53.2519,-1.4461,United Kingdom,E01019537,S418QE
656,Clowne,53.276,-1.263,United Kingdom,E01019491,S434JH
657,Ashbourne,53.01600000000001,-1.731,United Kingdom,E01019596,DE61DZ
658,Church Gresley,52.76,-1.5659999999999998,United Kingdom,E01019838,DE119RG
659,Wingerworth,53.2033,-1.4347,United Kingdom,E01019829,S426PR
660,Whaley Bridge,53.3304,-1.9838,United Kingdom,E01019765,SK237LS
661,Hadfield,53.46,-1.97,United Kingdom,E01019733,SK132DJ
662,Pinxton,53.0905,-1.3237,United Kingdom,E01019501,NG166PS
663,Swanwick,53.075,-1.398,United Kingdom,E01019475,DE551AN
664,Duffield,52.989,-1.489,United Kingdom,E01019427,DE564EU
665,Wirksworth,53.082,-1.574,United Kingdom,E01019636,DE44ET
666,Heage,53.05,-1.4469999999999998,United Kingdom,E01019429,DE562BQ
667,Melbourne,52.823,-1.429,United Kingdom,E01019854,DE738GN
668,West Hallam,52.97,-1.36,United Kingdom,E01019702,DE76LG
669,Shirland,53.121,-1.412,United Kingdom,E01019819,DE556AE
670,Blackwell,53.12,-1.354,United Kingdom,E01019481,DE555HE
671,Whittington,53.26,-1.43,United Kingdom,E01019542,S418LX
672,Bakewell,53.213,-1.6759,United Kingdom,E01019601,DE451BT
673,Whitwell,53.285,-1.209,United Kingdom,E01019523,S804QU
674,Hartshorne,52.789,-1.526,United Kingdom,E01019885,DE117AE
675,Tibshelf,53.143,-1.345,United Kingdom,E01019522,DE555LA
676,Old Brampton,53.2432,-1.4994,United Kingdom,E01019559,S427JG
677,Kilburn,53.0056,-1.4254,United Kingdom,E01019446,DE560NN
678,Pilsley,53.155,-1.366,United Kingdom,E01019813,S458EU
679,Barlborough,53.287,-1.287,United Kingdom,E01019479,S434SY
680,Draycott,52.8944,-1.3415,United Kingdom,E01019655,DE723PS
681,Heath,53.1982,-1.3353,United Kingdom,E01019799,S445SE
682,Holmewood,53.1893,-1.3549,United Kingdom,E01019800,S425RL
683,Etwall,52.88399999999999,-1.602,United Kingdom,E01019840,DE656LU
684,Crich,53.084,-1.479,United Kingdom,E01019424,DE45DD
685,Chinley,53.339,-1.941,United Kingdom,E01019711,SK236BH
686,Smalley,52.99800000000001,-1.394,United Kingdom,E01019464,DE76PR
687,Hayfield,53.38,-1.94,United Kingdom,E01019734,SK222LD
688,Repton,52.838,-1.5490000000000002,United Kingdom,E01019869,DE656GD
689,Willington,52.854,-1.565,United Kingdom,E01019880,DE656BQ
690,Birstall,52.6736,-1.12,United Kingdom,E01025681,LE44DN
691,Leicester,52.6333,-1.1333,United Kingdom,E01032867,LE16AS
692,Loughborough,52.7705,-1.2046,United Kingdom,E01025699,LE112TY
693,Hinckley,52.5413,-1.3725,United Kingdom,E01025852,LE101DB
694,Wigston Magna,52.5812,-1.093,United Kingdom,E01026001,LE183YD
695,Melton Mowbray,52.7661,-0.8859999999999999,United Kingdom,E01025899,LE131XA
696,Oadby,52.5987,-1.0763,United Kingdom,E01025978,LE24NQ
697,Market Harborough,52.4775,-0.9206,United Kingdom,E01025795,LE169DB
698,Glen Parva,52.5867,-1.1617,United Kingdom,E01025660,LE29HG
699,Braunstone,52.61600000000001,-1.175,United Kingdom,E01025653,LE32SU
700,Burbage,52.5277,-1.3483,United Kingdom,E01025830,LE102DD
701,Shepshed,52.7711,-1.2951,United Kingdom,E01025747,LE129BA
702,Syston,52.7,-1.08,United Kingdom,E01025756,LE71HU
703,Ashby de la Zouch,52.746,-1.476,United Kingdom,E01025918,LE652GT
704,Broughton Astley,52.5278,-1.2275,United Kingdom,E01025772,LE96PP
705,Belgrave,52.6566,-1.1262,United Kingdom,E01013628,LE45JL
706,Aylestone,52.604,-1.154,United Kingdom,E01013612,LE28JD
707,Evington,52.621,-1.072,United Kingdom,E01013670,LE56HQ
708,Glenfield,52.6491,-1.2062,United Kingdom,E01025622,LE38DP
709,Barwell,52.5682,-1.3462,United Kingdom,E01025821,LE98FZ
710,Whitwick,52.7403,-1.3556,United Kingdom,E01025968,LE675DT
711,Narborough,52.5727,-1.2023,United Kingdom,E01025642,LE192HL
712,Mountsorrel,52.7167,-1.15,United Kingdom,E01025729,LE127EB
713,Sileby,52.731,-1.106,United Kingdom,E01025748,LE127LJ
714,Sawley,52.882,-1.2990000000000002,United Kingdom,E01019699,NG103FR
715,Whetstone,52.5724,-1.1799,United Kingdom,E01025646,LE86LQ
716,Anstey,52.6715,-1.1955,United Kingdom,E01025672,LE77GW
717,Castle Donnington,52.8444,-1.3377,United Kingdom,E01025928,DE742NQ
718,Countesthorpe,52.555,-1.14,United Kingdom,E01025618,LE85SG
719,Enderby,52.5881,-1.2092,United Kingdom,E01025625,LE194PG
720,Blaby,52.5724,-1.1678,United Kingdom,E01025610,LE84EH
721,Barrow upon Soar,52.7517,-1.15,United Kingdom,E01025675,LE128PY
722,Ibstock,52.687,-1.401,United Kingdom,E01025943,LE676NH
723,Markfield,52.6878,-1.2775,United Kingdom,E01025868,LE679UT
724,Measham,52.7061,-1.508,United Kingdom,E01025949,DE127JD
725,Quorndon,52.7428,-1.17,United Kingdom,E01025733,LE128BS
726,Woodville,52.769,-1.533,United Kingdom,E01019883,DE117EH
727,Kirby Muxloe,52.6351,-1.2341,United Kingdom,E01025639,LE92DL
728,Coalville,52.724,-1.369,United Kingdom,E01025930,LE673FB
729,Thringstone,52.7557,-1.3657,United Kingdom,E01025962,LE678LQ
730,Hugglescote,52.71100000000001,-1.371,United Kingdom,E01025937,LE672BR
731,Rothley,52.709,-1.136,United Kingdom,E01025739,LE77PJ
732,Stoney Stanton,52.548,-1.2788,United Kingdom,E01025665,LE94LQ
733,Desford,52.625,-1.295,United Kingdom,E01025874,LE99JF
734,Kegworth,52.8369,-1.2836,United Kingdom,E01025945,DE742TB
735,Bottesford,52.9375,-0.802,United Kingdom,E01025885,NG130HS
736,Cosby,52.5517,-1.1933,United Kingdom,E01025614,LE91UA
737,Ashfordby,52.76,-0.96,United Kingdom,E01025883,LE143TX
738,Newbold Verdon,52.6296,-1.3421,United Kingdom,E01025872,LE99NP
739,Oakham,52.6705,-0.7333,United Kingdom,E01013799,LE156AY
740,Uppingham,52.59,-0.7222,United Kingdom,E01013807,LE159RN
741,Nottingham,52.95,-1.15,United Kingdom,E01033400,NG16AE
742,Mansfield,53.15,-1.2,United Kingdom,E01028284,NG197AG
743,Sutton in Ashfield,53.125,-1.261,United Kingdom,E01027976,NG171DG
744,West Bridgford,52.932,-1.127,United Kingdom,E01028398,NG25GR
745,Worksop,53.3042,-1.1244,United Kingdom,E01028062,S801DR
746,Arnold,53.005,-1.127,United Kingdom,E01028209,NG57EJ
747,Beeston,52.927,-1.215,United Kingdom,E01028073,NG92JP
748,Bulwell,53.00100000000001,-1.197,United Kingdom,E01013885,NG68QP
749,Clifton,52.904,-1.177,United Kingdom,E01013907,NG111DL
750,East Retford,53.3228,-0.9431,United Kingdom,E01028011,DN226DU
751,Kirkby in Ashfield,53.099,-1.245,United Kingdom,E01027952,NG177AP
752,Eastwood,53.018,-1.304,United Kingdom,E01028112,NG163DD
753,Basford,52.978,-1.169,United Kingdom,E01013839,NG77DB
754,Stapleford,52.929,-1.274,United Kingdom,E01028134,NG97HA
755,Chilwell,52.916,-1.235,United Kingdom,E01028096,NG95DL
756,Selston,53.07,-1.3,United Kingdom,E01027963,NG166EA
757,Warsop,53.2,-1.15,United Kingdom,E01028225,NG200LF
758,Ollerton,53.2,-1.02,United Kingdom,E01028341,NG229BF
759,Balderton,53.0549,-0.7727,United Kingdom,E01028288,NG243QD
760,Bingham,52.952,-0.953,United Kingdom,E01028358,NG138AB
761,Sandiacre,52.923,-1.291,United Kingdom,E01019693,NG105HS
762,Radcliffe on Trent,52.947,-1.04,United Kingdom,E01028414,NG122LN
763,Harworth,53.417,-1.075,United Kingdom,E01028024,DN118LB
764,Rainworth,53.1197,-1.1235,United Kingdom,E01028254,NG210EF
765,Hucknall under Huthwaite,53.125,-1.301,United Kingdom,E01027987,NG172RJ
766,Southwell,53.078,-0.955,United Kingdom,E01028347,NG250HE
767,Bramcote,52.934,-1.242,United Kingdom,E01028087,NG93BB
768,Ruddington,52.893,-1.15,United Kingdom,E01028407,NG116EL
769,Cotgrave,52.914,-1.042,United Kingdom,E01028370,NG123HJ
770,Calverton,53.037,-1.083,United Kingdom,E01028153,NG146FB
771,Carlton,52.967,-1.088,United Kingdom,E01028210,NG41SR
772,Gedling,52.975,-1.081,United Kingdom,E01028191,NG43HS
773,Kimberley,52.997,-1.255,United Kingdom,E01028102,NG162NH
774,East Leake,52.832,-1.177,United Kingdom,E01028389,LE126JQ
775,Edwinstowe,53.16,-1.07,United Kingdom,E01028295,NG228TA
776,Blidworth,53.098,-1.1165,United Kingdom,E01028298,NG210SU
777,Wilford,52.926,-1.16,United Kingdom,E01013901,NG117AP
778,Edwalton,52.912,-1.112,United Kingdom,E01028372,NG124AN
779,Bawtry,53.4278,-1.0167,United Kingdom,E01007610,DN106SU
780,Clipstone,53.17,-1.1073,United Kingdom,E01028313,NG219BF
781,Burton Joyce,52.988,-1.036,United Kingdom,E01028149,NG145DX
782,Bilsthorpe,53.1333,-1.0333,United Kingdom,E01028297,NG228TP
783,Lowdham,53.00899999999999,-1.001,United Kingdom,E01028330,NG147DQ
784,North Collingham,53.1478,-0.7592,United Kingdom,E01028315,NG237PH
785,Farnsfield,53.1028,-1.0361,United Kingdom,E01028328,NG228EF
786,Tuxford,53.231,-0.898,United Kingdom,E01028038,NG220LJ
787,Telford,52.6766,-2.4469,United Kingdom,E01014191,TF34DA
788,Wellington,52.7001,-2.5157,United Kingdom,E01014145,TF11PS
789,Madeley,52.637,-2.448,United Kingdom,E01014162,TF75AU
790,Newport,52.7691,-2.3787,United Kingdom,E01014178,TF107AW
791,Oakengates,52.695,-2.451,United Kingdom,E01014153,TF26DU
792,Muxton,52.72,-2.421,United Kingdom,E01014170,TF28JP
793,Horsehay,52.65600000000001,-2.49,United Kingdom,E01014146,TF43QF
794,Wrockwardine,52.703,-2.556,United Kingdom,E01014203,TF65DJ
795,Ironbridge,52.6277,-2.485,United Kingdom,E01028840,TF87AL
796,Stoke-on-Trent,53.0,-2.1833,United Kingdom,E01014339,ST44FF
797,Longton,52.9877,-2.1327,United Kingdom,E01014302,ST31BW
798,Milton,53.05,-2.142,United Kingdom,E01014265,ST27BS
799,Fenton,52.9977,-2.1578,United Kingdom,E01014274,ST42LX
800,Burslem,53.0426,-2.1879,United Kingdom,E01014249,ST62AZ
801,Bath,51.38,-2.36,United Kingdom,E01014370,BA11QF
802,Keynsham,51.4135,-2.4968,United Kingdom,E01014403,BS311HE
803,Midsomer Norton,51.2842,-2.4817,United Kingdom,E01014423,BA32
804,Whitchurch,51.4064,-2.5594,United Kingdom,E01014447,BS140PS
805,Peasedown Saint John,51.315,-2.424,United Kingdom,E01014445,BA28HJ
806,Radstock,51.293,-2.448,United Kingdom,E01014451,BA33
807,Paulton,51.3069,-2.5027,United Kingdom,E01014440,BS397QF
808,Saltford,51.4015,-2.4592,United Kingdom,E01014453,BS313
809,Batheaston,51.4065,-2.3112,United Kingdom,E01014373,BA17
810,Timsbury,51.3268,-2.4757,United Kingdom,E01014459,BA20LB
811,Bristol,51.45,-2.5833,United Kingdom,E01033353,BS16QH
812,Brislington,51.4316,-2.5439,United Kingdom,E01014527,BS45QH
813,Avonmouth,51.50100000000001,-2.699,United Kingdom,E01014499,BS119
814,Weston-super-Mare,51.346,-2.977,United Kingdom,E01014801,BS231UT
815,Portishead,51.484,-2.7626,United Kingdom,E01032681,BS207BX
816,Clevedon,51.438,-2.854,United Kingdom,E01014750,BS217TJ
817,Nailsea,51.43,-2.76,United Kingdom,E01014784,BS482JB
818,Felton,51.51,-2.574,United Kingdom,E01014906,BS34
819,Yatton,51.3855,-2.8256,United Kingdom,E01014859,BS494EF
820,Long Ashton,51.43,-2.65,United Kingdom,E01014850,BS419NG
821,Easton-in-Gordano,51.476000000000006,-2.7,United Kingdom,E01014767,BS200
822,Congresbury,51.3677,-2.8109,United Kingdom,E01014765,BS495DJ
823,Banwell,51.327,-2.864,United Kingdom,E01014746,BS29
824,Locking,51.3309,-2.9108,United Kingdom,E01014769,BS248BS
825,Wrington,51.361,-2.763,United Kingdom,E01014853,BS405QQ
826,Hutton,51.3219,-2.927,United Kingdom,E01014771,BS249SN
827,Kingswood,51.46,-2.505,United Kingdom,E01015007,BS15
828,Yate,51.5402,-2.411,United Kingdom,E01015017,BS374AS
829,Stoke Gifford,51.517,-2.548,United Kingdom,E01014979,BS348LW
830,Thornbury,51.6094,-2.5249,United Kingdom,E01014987,BS352AG
831,Frampton Cotterell,51.54,-2.48,United Kingdom,E01014913,BS36
832,Chipping Sodbury,51.538,-2.394,United Kingdom,E01014886,BS376AH
833,Almondsbury,51.5567,-2.5725,United Kingdom,E01014948,BS324
834,Siston,51.4746,-2.4501,United Kingdom,E01033338,BS169LR
835,Pilning,51.56399999999999,-2.6417,United Kingdom,E01014953,BS354
836,Bitton,51.4248,-2.46,United Kingdom,E01014865,BS306LA
837,Westerleigh,51.51,-2.43,United Kingdom,E01014896,BS378RB
838,Alveston,51.589,-2.533,United Kingdom,E01014863,BS353PD
839,Pucklechurch,51.487,-2.4353,United Kingdom,E01014867,BS169RB
840,Charfield,51.6261,-2.4058,United Kingdom,E01014885,GL128
841,Plymouth,50.3714,-4.1422,United Kingdom,E01015152,PL11RA
842,Plympton,50.386,-4.051,United Kingdom,E01015114,PL71HU
843,Plymstock,50.3569,-4.09,United Kingdom,E01015140,PL99AE
844,Saint Budeaux,50.4033,-4.1856,United Kingdom,E01015144,PL51RH
845,Egg Buckland,50.4006,-4.1136,United Kingdom,E01015067,PL65TJ
846,Torquay,50.47,-3.53,United Kingdom,E01015217,TQ13HZ
847,Swindon,51.56,-1.78,United Kingdom,E01032714,SN12FD
848,Stratton Saint Margaret,51.58600000000001,-1.7619999999999998,United Kingdom,E01015558,SN27JX
849,Blunsdon Saint Andrew,51.61,-1.79,United Kingdom,E01015472,SN268AA
850,Highworth,51.631,-1.712,United Kingdom,E01015519,SN67
851,Wroughton,51.525,-1.7919999999999998,United Kingdom,E01015584,SN49AT
852,Chisledon,51.51600000000001,-1.731,United Kingdom,E01015588,SN40NG
853,Luton,51.8783,-0.4147,United Kingdom,E01015791,LU12AQ
854,Leagrave,51.903,-0.466,United Kingdom,E01015751,LU49LL
855,Stopsley,51.899,-0.396,United Kingdom,E01015796,LU29AR
856,Sundon,51.92,-0.47,United Kingdom,E01015803,LU33HY
857,Leigh-on-Sea,51.5425,0.6535,United Kingdom,E01015848,SS92HA
858,Shoeburyness,51.5316,0.7978,United Kingdom,E01015876,SS39UD
859,Great Wakering,51.5516,0.8165,United Kingdom,E01021923,SS30AR
860,Grays,51.475,0.33,United Kingdom,E01015952,RM176BU
861,Stanford le Hope,51.514,0.4244,United Kingdom,E01015989,SS170DN
862,South Ockendon,51.5207,0.2956,United Kingdom,E01015975,RM156NU
863,Tilbury,51.4606,0.3582,United Kingdom,E01016006,RM187BT
864,Aveley,51.5018,0.2534,United Kingdom,E01015923,RM154SZ
865,West Thurrock,51.4836,0.282,United Kingdom,E01016011,RM203WY
866,Orsett,51.51,0.37,United Kingdom,E01015977,RM163JT
867,Gillingham,51.385,0.55,United Kingdom,E01016041,ME74AW
868,Chatham,51.37,0.52,United Kingdom,E01016125,ME46JA
869,Rochester,51.375,0.5,United Kingdom,E01016115,ME11RR
870,Strood,51.393,0.478,United Kingdom,E01016151,ME22YN
871,Rainham,51.36,0.61,United Kingdom,E01016089,ME89HX
872,Cuxton,51.375,0.45,United Kingdom,E01016028,ME21EZ
873,Bracknell,51.416,-0.7490000000000001,United Kingdom,E01016249,RG121DG
874,Winkfield,51.4318,-0.7096,United Kingdom,E01016253,RG426NH
875,Warfield,51.442,-0.737,United Kingdom,E01016245,RG426EE
876,Binfield,51.432,-0.792,United Kingdom,E01016187,RG424NZ
877,Crowthorne,51.37,-0.792,United Kingdom,E01016208,RG457BB
878,Newbury,51.401,-1.3230000000000002,United Kingdom,E01016347,Newburycentral postcode placeholder
879,Thatcham,51.405,-1.264,United Kingdom,E01016331,RG183HB
880,Burghfield,51.411,-1.042,United Kingdom,E01016269,RG303TH
881,Hungerford,51.414,-1.515,United Kingdom,E01016296,RG170DT
882,Lambourn,51.50899999999999,-1.531,United Kingdom,E01016306,RG178YA
883,Cold Ash,51.424,-1.264,United Kingdom,E01016284,RG189PR
884,Stratfield Mortimer,51.37300000000001,-1.037,United Kingdom,E01016308,RG73PA
885,Pangbourne,51.4839,-1.0869,United Kingdom,E01016313,RG87AG
886,Chieveley,51.46100000000001,-1.319,United Kingdom,E01016277,RG208TY
887,Theale,51.437,-1.077,United Kingdom,E01016344,RG75JH
888,Speen,51.4098,-1.3417,United Kingdom,E01016325,RG141UT
889,Kintbury,51.399,-1.449,United Kingdom,E01016301,RG179TJ
890,Reading,51.4542,-0.9731,United Kingdom,E01033420,RG12JR
891,Caversham,51.467,-0.973,United Kingdom,E01016362,RG48HU
892,Tilehurst,51.4579,-1.0406,United Kingdom,E01016431,RG304RW
893,Slough,51.51,-0.59,United Kingdom,E01016512,SL11XW
894,Colnbrook,51.4835,-0.5221,United Kingdom,E01016481,SL30JQ
895,Maidenhead,51.5217,-0.7177,United Kingdom,E01032734,SL61PZ
896,Windsor,51.4791,-0.6095,United Kingdom,E01016544,SL42LB
897,Ascot,51.4084,-0.6707,United Kingdom,E01016609,SL57ES
898,Sunninghill,51.405,-0.6559999999999999,United Kingdom,E01016606,SL57AZ
899,Datchet,51.4841,-0.5762,United Kingdom,E01016565,SL39EN
900,Sunningdale,51.398,-0.626,United Kingdom,E01016605,SL50NN
901,Old Windsor,51.46,-0.586,United Kingdom,E01016587,SL42PX
902,Bray,51.507,-0.7,United Kingdom,E01016539,SL62AR
903,Wraysbury,51.458,-0.552,United Kingdom,E01016575,TW195NN
904,White Waltham,51.49,-0.769,United Kingdom,E01016578,SL63JH
905,Wokingham,51.41,-0.84,United Kingdom,E01016626,RG402AL
906,Woodley,51.453,-0.902,United Kingdom,E01016616,RG54JR
907,Earley,51.433,-0.933,United Kingdom,E01016653,RG65QN
908,Shinfield,51.408,-0.947,United Kingdom,E01032758,RG29EG
909,Twyford,51.477,-0.867,United Kingdom,E01016692,RG109DR
910,Barkham,51.402,-0.8759999999999999,United Kingdom,E01016612,RG414TE
911,Milton Keynes,52.04,-0.76,United Kingdom,E01033499,MK92EA
912,Bletchley,51.994,-0.732,United Kingdom,E01016714,MK22SF
913,Shenley Brook End,52.00899999999999,-0.789,United Kingdom,E01016753,MK57GE
914,Great Linford,52.06800000000001,-0.7637,United Kingdom,E01016809,MK145DW
915,Newport Pagnell,52.087,-0.722,United Kingdom,E01016794,MK168AR
916,Shenley Church End,52.022,-0.7879999999999999,United Kingdom,E01016781,MK56AB
917,Wolverton,52.0626,-0.8102,United Kingdom,E01016837,MK125LJ
918,Bradwell,52.05,-0.787,United Kingdom,E01016719,MK139AE
919,Stony Stratford,52.0567,-0.8526,United Kingdom,E01016818,MK111AA
920,Olney,52.1529,-0.7015,United Kingdom,E01016796,MK464BA
921,Broughton,52.05,-0.6940000000000001,United Kingdom,E01033508,MK109LT
922,Brighton,50.8429,-0.1313,United Kingdom,E01016901,BN17HA
923,Hove,50.8352,-0.1758,United Kingdom,E01016872,BN33LW
924,Patcham,50.864,-0.15,United Kingdom,E01016923,BN18WS
925,Rottingdean,50.815,-0.065,United Kingdom,E01016962,BN27FP
926,Portsmouth,50.8058,-1.0872,United Kingdom,E01017038,Portsmouthcentral postcode placeholder
927,Cosham,50.8424,-1.0659999999999998,United Kingdom,E01017055,PO62AB
928,Hilsea,50.83,-1.07,United Kingdom,E01017092,PO29RJ
929,Southampton,50.9,-1.4,United Kingdom,E01032751,SO143DF
930,Ryde,50.7271,-1.1618,United Kingdom,E01017340,PO332JA
931,Newport,50.701,-1.2883,United Kingdom,E01017326,PO302HH
932,Sandown,50.6551,-1.1541,United Kingdom,E01017348,PO368EX
933,Cowes,50.7595,-1.3002,United Kingdom,E01017303,PO317SW
934,Shanklin,50.631,-1.1734,United Kingdom,E01017356,PO376AY
935,East Cowes,50.757,-1.2865,United Kingdom,E01017309,PO326RT
936,Ventnor,50.5976,-1.2084,United Kingdom,E01017363,PO381DX
937,Freshwater,50.6826,-1.5249,United Kingdom,E01017315,PO409DS
938,Bembridge,50.6897,-1.0889,United Kingdom,E01017284,PO355UA
939,Haven Street,50.7092,-1.2089,United Kingdom,E01017286,PO334DP
940,Carisbrooke,50.6917,-1.3172,United Kingdom,E01017293,PO305JX
941,Wootton,50.7263,-1.2321,United Kingdom,E01017367,PO334QE
942,Totland,50.6849,-1.5366,United Kingdom,E01017362,PO390BY
943,Leighton Buzzard,51.9165,-0.6617,United Kingdom,E01017555,LU71EY
944,Dunstable,51.886,-0.521,United Kingdom,E01017570,LU61TA
945,Linslade,51.9243,-0.6774,United Kingdom,E01017590,LU72SD
946,Houghton Regis,51.9039,-0.5247,United Kingdom,E01017617,LU55DP
947,Biggleswade,52.0855,-0.2557,United Kingdom,E01017383,SG188FS
948,Ampthill,52.0263,-0.4906,United Kingdom,E01017372,MK452TD
949,Flitwick,52.0038,-0.4966,United Kingdom,E01017407,MK451JZ
950,Sandy,52.131,-0.297,United Kingdom,E01017434,SG191HD
951,Arlesey,52.007,-0.2654,United Kingdom,E01017378,SG156RA
952,Barton-le-Clay,51.9669,-0.4241,United Kingdom,E01017559,MK454NY
953,Shefford,52.037,-0.332,United Kingdom,E01017438,SG175GY
954,Cranfield,52.0699,-0.6081,United Kingdom,E01017397,MK430HU
955,Potton,52.1271,-0.2152,United Kingdom,E01017429,SG192JP
956,Toddington,51.9496,-0.5323,United Kingdom,E01017620,LU56QJ
957,Marston Moretaine,52.0627,-0.5478,United Kingdom,E01017418,MK430PH
958,Caddington,51.8631,-0.4568,United Kingdom,E01017563,LU14HY
959,Maulden,52.03,-0.47,United Kingdom,E01017420,MK452DJ
960,Langford,52.0529,-0.2741,United Kingdom,E01017414,SG189NU
961,Clifton,52.0398,-0.3017,United Kingdom,E01017392,SG175EL
962,Bedford,52.135,-0.47,United Kingdom,E01017466,MK401AS
963,Leighton Buzzard,51.9165,-0.6617,United Kingdom,E01017555,LU71EY
964,Dunstable,51.886,-0.521,United Kingdom,E01017570,LU61TA
965,Linslade,51.9243,-0.6774,United Kingdom,E01017590,LU72SD
966,Kempston,52.114,-0.4970000000000001,United Kingdom,E01017505,MK427QA
967,Houghton Regis,51.9039,-0.5247,United Kingdom,E01017617,LU55DP
968,Biggleswade,52.0855,-0.2557,United Kingdom,E01017383,SG188FS
969,Ampthill,52.0263,-0.4906,United Kingdom,E01017372,MK452TD
970,Flitwick,52.0038,-0.4966,United Kingdom,E01017407,MK451JZ
971,Sandy,52.131,-0.297,United Kingdom,E01017434,SG191HD
972,Arlesey,52.007,-0.2654,United Kingdom,E01017378,SG156RA
973,Barton-le-Clay,51.9669,-0.4241,United Kingdom,E01017559,MK454NY
974,Bromham,52.1454,-0.5298,United Kingdom,E01017459,MK438NE
975,Shefford,52.037,-0.332,United Kingdom,E01017438,SG175GY
976,Cranfield,52.0699,-0.6081,United Kingdom,E01017397,MK430HU
977,Potton,52.1271,-0.2152,United Kingdom,E01017429,SG192JP
978,Toddington,51.9496,-0.5323,United Kingdom,E01017620,LU56QJ
979,Marston Moretaine,52.0627,-0.5478,United Kingdom,E01017418,MK430PH
980,Wootton,52.0987,-0.5319,United Kingdom,E01017554,MK439DE
981,Caddington,51.8631,-0.4568,United Kingdom,E01017563,LU14HY
982,Clapham,52.1649,-0.502,United Kingdom,E01017480,MK416BT
983,Wilstead,52.0666,-0.4333,United Kingdom,E01017549,MK453QP
984,Maulden,52.03,-0.47,United Kingdom,E01017420,MK452DJ
985,Langford,52.0529,-0.2741,United Kingdom,E01017414,SG189NU
986,Clifton,52.0398,-0.3017,United Kingdom,E01017392,SG175EL
987,Elstow,52.1069,-0.4648,United Kingdom,E01017550,MK429YR
988,Biddenham,52.1406,-0.5051,United Kingdom,E01017460,MK404RN
989,Wisbech,52.664,0.16,United Kingdom,E01033112,PE131EN
990,Saint Neots,52.228,-0.27,United Kingdom,E01018187,PE192HL
991,Huntingdon,52.3364,-0.1717,United Kingdom,E01018143,PE291UW
992,March,52.551,0.088,United Kingdom,E01018077,PE158TG
993,Ely,52.3981,0.2622,United Kingdom,E01018025,CB74DH
994,Saint Ives,52.3344,-0.0761,United Kingdom,E01018164,PE273TE
995,Whittlesey,52.558,-0.13,United Kingdom,E01018100,PE71AZ
996,Soham,52.3338,0.3361,United Kingdom,E01018052,CB75ED
997,Chatteris,52.456,0.055,United Kingdom,E01018105,PE166BS
998,Yaxley,52.52,-0.26,United Kingdom,E01018214,PE73ZT
999,Eaton Socon,52.22,-0.29,United Kingdom,E01018179,PE198DE
1000,Cherry Hinton,52.1849,0.176,United Kingdom,E01017959,CB19HX
1001,Littleport,52.4568,0.3046,United Kingdom,E01018042,CB61HE
1002,Ramsey,52.45,-0.12,United Kingdom,E01018160,PE261LB
1003,Trumpington,52.174,0.109,United Kingdom,E01018002,CB29LH
1004,Sawston,52.1247,0.1731,United Kingdom,E01018281,CB223LA
1005,Godmanchester,52.3176,-0.1725,United Kingdom,E01018134,PE292NY
1006,Sawtry,52.44,-0.28,United Kingdom,E01018195,PE285RH
1007,Burwell,52.275,0.327,United Kingdom,E01018014,CB250EN
1008,Cottenham,52.2865,0.1244,United Kingdom,E01018234,CB248YY
1009,Waterbeach,52.2664,0.1908,United Kingdom,E01018301,CB259HN
1010,Brampton,52.3194,-0.2335,United Kingdom,E01018116,PE284RN
1011,Milton,52.2435,0.1615,United Kingdom,E01018273,CB246AJ
1012,Fulbourn,52.184,0.2272,United Kingdom,E01018244,CB215ER
1013,Girton,52.233,0.083,United Kingdom,E01018250,CB30LS
1014,Linton,52.0991,0.2769999999999999,United Kingdom,E01018264,CB214HY
1015,Melbourn,52.082,0.0205,United Kingdom,E01018269,SG86HJ
1016,Shelford,52.1503,0.1357,United Kingdom,E01018293,CB225EH
1017,Bar Hill,52.2539,0.0228,United Kingdom,E01018221,CB238DT
1018,Willingham,52.32,0.07,United Kingdom,E01018304,CB245AF
1019,Warboys,52.4,-0.07,United Kingdom,E01018210,PE282SL
1020,Elm,52.63,0.18,United Kingdom,E01018067,PE140NA
1021,Somersham,52.3823,0.0006,United Kingdom,E01018197,PE283YY
1022,Wisbech Saint Mary,52.63,0.1,United Kingdom,E01018092,PE134DL
1023,Haddenham,52.358,0.149,United Kingdom,E01018037,CB63TP
1024,Gamlingay,52.1579,-0.1946,United Kingdom,E01018246,SG193NL
1025,Little Paxton,52.25,-0.25,United Kingdom,E01018155,PE196ET
1026,Papworth Everard,52.2547,-0.1189,United Kingdom,E01018276,CB233RL
1027,Fen Stanton,52.3,-0.07,United Kingdom,E01018130,PE289PZ
1028,Over,52.31399999999999,0.016,United Kingdom,E01018305,CB245NQ
1029,Buckden,52.28,-0.25,United Kingdom,E01018119,PE195XU
1030,Fordham,52.32,0.38,United Kingdom,E01018034,CB75LU
1031,Hardwick,52.2133,0.0119,United Kingdom,E01018251,CB237QQ
1032,Teversham,52.2,0.19,United Kingdom,E01018286,CB19AD
1033,Long Stanton,52.279,0.0478,United Kingdom,E01018266,CB243BL
1034,Hemingford Grey,52.31800000000001,-0.104,United Kingdom,E01018203,PE289BY
1035,Holywell,52.319,-0.034,United Kingdom,E01018121,PE274TQ
1036,Chester,53.19,-2.89,United Kingdom,E01018326,CH11LE
1037,Ellesmere Port,53.279,-2.897,United Kingdom,E01018520,CH650AR
1038,Winsford,53.194,-2.52,United Kingdom,E01018731,CW72UL
1039,Northwich,53.25899999999999,-2.518,United Kingdom,E01018712,CW81AB
1040,Neston,53.289,-3.074,United Kingdom,E01018536,CH646QP
1041,Frodsham,53.295,-2.725,United Kingdom,E01018688,WA66QL
1042,Weaverham,53.262,-2.577,United Kingdom,E01018729,CW83EU
1043,Hartford,53.245,-2.549,United Kingdom,E01018693,CW81QN
1044,Cuddington,53.24,-2.6,United Kingdom,E01018676,CW82LE
1045,Helsby,53.273,-2.77,United Kingdom,E01018697,WA60AU
1046,Willaston,53.292,-3.005,United Kingdom,E01018571,CH642XD
1047,Parkgate,53.29600000000001,-3.085,United Kingdom,E01018537,CH646RW
1048,Elton,53.2766,-2.8168,United Kingdom,E01018338,CH24ND
1049,Saughall,53.2234,-2.9593,United Kingdom,E01018366,CH16EN
1050,Sealand,53.212,-2.97,United Kingdom,E01018366,CH16BS
1051,Davenham,53.2358,-2.5111,United Kingdom,E01018683,CW98NA
1052,Tarvin,53.1949,-2.7668,United Kingdom,E01018368,CH38LA
1053,Tarporley,53.1602,-2.6694,United Kingdom,E01018723,CW60UW
1054,Kelsall,53.207,-2.712,United Kingdom,E01018350,CW60QG
1055,Crewe,53.099,-2.44,United Kingdom,E01018464,CW12BS
1056,Macclesfield,53.2581,-2.1274,United Kingdom,E01018624,SK116BU
1057,Congleton,53.162,-2.217,United Kingdom,E01018398,CW124BG
1058,Wilmslow,53.325,-2.239,United Kingdom,E01018601,SK95HZ
1059,Sandbach,53.146,-2.367,United Kingdom,E01018437,CW111JN
1060,Nantwich,53.067,-2.522,United Kingdom,E01018504,CW55RG
1061,Poynton,53.3492,-2.1222,United Kingdom,E01018655,SK121QX
1062,Middlewich,53.192,-2.443,United Kingdom,E01018420,CW109NQ
1063,Knutsford,53.3025,-2.3708,United Kingdom,E01018610,WA168BW
1064,Lymm,53.3834,-2.475,United Kingdom,E01012516,WA139PQ
1065,Alsager,53.0961,-2.3048,United Kingdom,E01018388,ST72AP
1066,Wistaston,53.0821,-2.4747,United Kingdom,E01018490,CW28ER
1067,Bollington,53.298,-2.093,United Kingdom,E01018576,SK105PY
1068,Handforth,53.35,-2.216,United Kingdom,E01018595,SK93HQ
1069,Holmes Chapel,53.20399999999999,-2.353,United Kingdom,E01018415,CW47NL
1070,Alderley Edge,53.303,-2.236,United Kingdom,E01018574,SK97JU
1071,Prestbury,53.2928,-2.1452,United Kingdom,E01018666,SK104HT
1072,Willaston,53.082,-2.479,United Kingdom,E01018490,CW28EZ
1073,Mobberley,53.3134,-2.3263,United Kingdom,E01018650,WA167HL
1074,Rainow,53.2802,-2.0727,United Kingdom,E01018669,SK105XR
1075,Falmouth,50.15,-5.07,United Kingdom,E01018804,TR114RH
1076,Camborne,50.213,-5.3,United Kingdom,E01018878,TR148EP
1077,Penzance,50.119,-5.537000000000001,United Kingdom,E01018999,TR182JF
1078,Newquay,50.412,-5.0757,United Kingdom,E01019020,TR7
1079,Saint Austell,50.3386,-4.7922,United Kingdom,E01019047,PL254AT
1080,Truro,50.26,-5.051,United Kingdom,E01018809,TR12DY
1081,Saltash,50.408,-4.212,United Kingdom,E01018793,PL124DP
1082,Bodmin,50.466,-4.718,United Kingdom,E01018933,PL311AZ
1083,Redruth,50.233,-5.224,United Kingdom,E01018913,TR152EE
1084,Saint Ives,50.21100000000001,-5.48,United Kingdom,E01019012,TR262DX
1085,Helston,50.1,-5.27,United Kingdom,E01018885,TR138AT
1086,Bude,50.824,-4.542,United Kingdom,E01018938,EX238
1087,Launceston,50.635,-4.354,United Kingdom,E01018950,PL159ES
1088,Hayle,50.183,-5.416,United Kingdom,E01018984,TR27
1089,Torpoint,50.37600000000001,-4.205,United Kingdom,E01018798,PL11
1090,Wadebridge,50.517,-4.835,United Kingdom,E01018972,PL277AH
1091,Saint Agnes,50.312,-5.204,United Kingdom,E01018851,TR50QW
1092,Penryn,50.169,-5.107,United Kingdom,E01018836,TR108EN
1093,Saint Blazey,50.361,-4.716,United Kingdom,E01019057,PL242NF
1094,Callington,50.503,-4.316,United Kingdom,E01018751,PL177AE
1095,Perranzabuloe,50.326,-5.132999999999999,United Kingdom,E01018843,TR49LQ
1096,Illogan,50.25,-5.268,United Kingdom,E01018893,TR164SR
1097,Looe,50.354,-4.454,United Kingdom,E01018776,PL131AE
1098,Saint Columb Major,50.432,-4.94,United Kingdom,E01019062,TR9
1099,Newlyn,50.101000000000006,-5.553,United Kingdom,E01019004,TR185
1100,Bugle,50.396,-4.793,United Kingdom,E01019076,PL268PH
1101,Altarnun,50.603,-4.511,United Kingdom,E01018925,PL157RU
1102,Feock,50.206,-5.05,United Kingdom,E01018816,TR36SA
1103,Dobwalls,50.4577,-4.5158,United Kingdom,E01018758,PL146JE
1104,Perranporth,50.3437,-5.1546,United Kingdom,E01018842,TR60EP
1105,Porthleven,50.084,-5.315,United Kingdom,E01018906,TR139DZ
1106,Gwithian,50.2214,-5.3865,United Kingdom,E01018980,TR275BX
1107,Breage,50.108,-5.332000000000002,United Kingdom,E01018861,TR139PU
1108,Padstow,50.538,-4.938,United Kingdom,E01018956,PL288
1109,Camelford,50.617,-4.683,United Kingdom,E01033292,PL329
1110,Lostwithiel,50.4074,-4.6696,United Kingdom,E01019035,PL220BN
1111,Saint Dennis,50.383,-4.883,United Kingdom,E01019055,PL268AF
1112,Wendron,50.13399999999999,-5.247999999999998,United Kingdom,E01018883,TR130EA
1113,Crowan,50.163,-5.294,United Kingdom,E01018863,TR149ND
1114,Delabole,50.622,-4.7330000000000005,United Kingdom,E01018941,PL339DS
1115,Weymouth,50.613,-2.457,United Kingdom,E01020554,DT47DW
1116,Christchurch,50.73,-1.78,United Kingdom,E01020367,BH231HU
1117,Fern Down,50.81,-1.9,United Kingdom,E01020375,BH229QG
1118,Dorchester,50.7154,-2.4367,United Kingdom,E01032644,DT11UT
1119,Wimborne Minster,50.804,-1.978,United Kingdom,E01020426,BH211HW
1120,Verwood,50.8815,-1.8785,United Kingdom,E01020414,BH317AA
1121,Bridport,50.7336,-2.7584,United Kingdom,E01020503,DT63QJ
1122,Gillingham,51.0375,-2.2748,United Kingdom,E01020443,SP84QT
1123,Blandford Forum,50.856,-2.1648,United Kingdom,E01020438,DT117AH
1124,Corfe Mullen,50.7701,-2.0175,United Kingdom,E01020382,BH21
1125,Swanage,50.608,-1.96,United Kingdom,E01020482,BH192NB
1126,Sherborne,50.9469,-2.5171,United Kingdom,E01020546,DT93AP
1127,Shaftesbury,51.0059,-2.1969,United Kingdom,E01020454,SP78JG
1128,Chickerell,50.624,-2.5047,United Kingdom,E01020513,DT34DR
1129,Wareham,50.68600000000001,-2.1099,United Kingdom,E01020488,BH204AB
1130,Wyke Regis,50.592,-2.475,United Kingdom,E01020586,DT49AS
1131,Wool,50.6789,-2.2189,United Kingdom,E01020492,BH206BP
1132,Sturminster Newton,50.9261,-2.3051,United Kingdom,E01020458,DT101AS
1133,Highcliffe,50.7414,-1.6959,United Kingdom,E01020349,BH235PP
1134,Lyme Regis,50.725,-2.94,United Kingdom,E01020532,DT73JA
1135,West Parley,50.786,-1.886,United Kingdom,E01020402,BH228PR
1136,Lytchett Matravers,50.7582,-2.0791,United Kingdom,E01020470,BH166BH
1137,Alderholt,50.9133,-1.8317,United Kingdom,E01020374,SP63AZ
1138,Beaminster,50.809,-2.7391,United Kingdom,E01020496,DT83AW
1139,Charminster,50.7327,-2.4546,United Kingdom,E01032643,DT29QL
1140,Stalbridge,50.9594,-2.3784,United Kingdom,E01020434,DT102QU
1141,Rotherham,53.43,-1.357,United Kingdom,E01007714,S601FF
1142,Rawmarsh,53.4636,-1.3439,United Kingdom,E01007782,S627BQ
1143,Maltby,53.426,-1.21,United Kingdom,E01007762,S668AR
1144,Swinton,53.4877,-1.3149,United Kingdom,E01007796,S648NB
1145,Swallownest,53.3623,-1.3251,United Kingdom,E01007671,S264NF
1146,Wath upon Dearne,53.5022,-1.3402,United Kingdom,E01007821,S637PU
1147,Dinnington,53.3667,-1.2,United Kingdom,E01007791,S252PG
1148,Bramley,53.4253,-1.2648,United Kingdom,E01007684,S662YG
1149,Wickersley,53.4199,-1.2792,United Kingdom,E01007686,S661FA
1150,Whiston,53.4,-1.32,United Kingdom,E01007812,S604NS
1151,Thrybergh,53.45,-1.3,United Kingdom,E01007719,S654ET
1152,Treeton,53.3845,-1.3513,United Kingdom,E01007701,S605PZ
1153,West Melton,53.5035,-1.3618,United Kingdom,E01007697,S636QS
1154,Kilnhurst,53.4703,-1.3057,United Kingdom,E01007772,S645SL
1155,Elsecar,53.496,-1.412,United Kingdom,E01007394,S748AY
1156,Cheltenham,51.9,-2.0667,United Kingdom,E01022102,GL526AP
1157,Kingswood,51.46,-2.505,United Kingdom,E01015007,BS15
1158,Stroud,51.744,-2.215,United Kingdom,E01022411,GL52AL
1159,Yate,51.5402,-2.411,United Kingdom,E01015017,BS374AS
1160,Tewkesbury,51.99,-2.16,United Kingdom,E01022458,GL205SA
1161,Cirencester,51.719,-1.968,United Kingdom,E01022194,GL7
1162,Quedgeley,51.825,-2.28,United Kingdom,E01022335,GL24TQ
1163,Stoke Gifford,51.517,-2.548,United Kingdom,E01014979,BS348LW
1164,Thornbury,51.6094,-2.5249,United Kingdom,E01014987,BS352AG
1165,Churchdown,51.88,-2.17,United Kingdom,E01022427,GL3
1166,Bishops Cleeve,51.947,-2.061,United Kingdom,E01022436,GL528LR
1167,Charlton Kings,51.8877,-2.0413,United Kingdom,E01022112,GL526LY
1168,Hucclecote,51.85,-2.18,United Kingdom,E01022304,GL33UD
1169,Lydney,51.7286,-2.5285,United Kingdom,E01022256,GL155
1170,Cinderford,51.8225,-2.4989,United Kingdom,E01022236,GL14
1171,Coleford,51.791,-2.6162,United Kingdom,E01022245,GL168RQ
1172,Cam,51.7,-2.3667,United Kingdom,E01022359,GL11
1173,Stonehouse,51.7478,-2.2838,United Kingdom,E01022402,GL102NA
1174,Brockworth,51.85,-2.15,United Kingdom,E01022424,GL34QF
1175,Dursley,51.6811,-2.3543,United Kingdom,E01022372,GL114BN
1176,Frampton Cotterell,51.54,-2.48,United Kingdom,E01014913,BS36
1177,Chalford,51.7238,-2.1491,United Kingdom,E01022367,GL6
1178,Nailsworth,51.6954,-2.2234,United Kingdom,E01022386,GL60
1179,Wotton-under-Edge,51.63800000000001,-2.349,United Kingdom,E01022417,GL127JL
1180,Tidenham,51.6605,-2.6435,United Kingdom,E01022274,NP167JQ
1181,Tetbury,51.636,-2.158,United Kingdom,E01022220,GL88
1182,Newent,51.9302,-2.4048,United Kingdom,E01022262,GL181
1183,Chipping Sodbury,51.538,-2.394,United Kingdom,E01014886,BS376AH
1184,Almondsbury,51.5567,-2.5725,United Kingdom,E01014948,BS324
1185,Siston,51.4746,-2.4501,United Kingdom,E01033338,BS169LR
1186,Winchcomb,51.955,-1.965,United Kingdom,E01022464,GL545HX
1187,Hardwicke,51.8139,-2.2847,United Kingdom,E01022338,GL24
1188,Pilning,51.56399999999999,-2.6417,United Kingdom,E01014953,BS354
1189,Bitton,51.4248,-2.46,United Kingdom,E01014865,BS306LA
1190,Moreton in Marsh,51.988,-1.7009999999999998,United Kingdom,E01022211,GL560LT
1191,South Cerney,51.67100000000001,-1.932,United Kingdom,E01022223,GL75
1192,Westerleigh,51.51,-2.43,United Kingdom,E01014896,BS378RB
1193,Bourton on the Water,51.886,-1.759,United Kingdom,E01022180,GL542AP
1194,Fairford,51.708,-1.785,United Kingdom,E01022203,GL74
1195,Bream,51.7498,-2.574,United Kingdom,E01022231,GL156
1196,Drybrook,51.8542,-2.5496,United Kingdom,E01022251,GL179
1197,Painswick,51.786,-2.194,United Kingdom,E01022390,GL66QA
1198,Alveston,51.589,-2.533,United Kingdom,E01014863,BS353PD
1199,Pucklechurch,51.487,-2.4353,United Kingdom,E01014867,BS169RB
1200,Minchinhampton,51.7058,-2.186,United Kingdom,E01022383,GL69BP
1201,Lechlade,51.699,-1.692,United Kingdom,E01022210,GL73
1202,Mitcheldean,51.8646,-2.4904,United Kingdom,E01022259,GL170
1203,Charfield,51.6261,-2.4058,United Kingdom,E01014885,GL128
1204,Hartlepool,54.69,-1.21,United Kingdom,E01011974,TS240XR
1205,Seaton Carew,54.6628,-1.1888,United Kingdom,E01011996,TS251AR
1206,Lincoln,53.2344,-0.5386,United Kingdom,E01026148,LN21PZ
1207,Grimsby,53.5595,-0.068,United Kingdom,E01013161,DN329PB
1208,Scunthorpe,53.5809,-0.6502,United Kingdom,E01013314,DN161LR
1209,Grantham,52.918,-0.638,United Kingdom,E01026353,NG319BA
1210,Cleethorpes,53.5533,-0.0215,United Kingdom,E01013152,DN350BB
1211,Boston,52.974,-0.0214,United Kingdom,E01026025,PE216JY
1212,Spalding,52.7858,-0.1529,United Kingdom,E01026266,PE112XA
1213,Gainsborough,53.4016,-0.7732,United Kingdom,E01026384,DN212JG
1214,Stamford,52.65600000000001,-0.484,United Kingdom,E01026288,PE91LL
1215,Skegness,53.14,0.34,United Kingdom,E01026093,PE253JS
1216,Sleaford,52.996,-0.413,United Kingdom,E01026227,NG347RS
1217,Louth,53.3669,-0.0061,United Kingdom,E01032986,LN119QA
1218,Bourne,52.7684,-0.3775,United Kingdom,E01026299,PE109ED
1219,North Hykeham,53.1819,-0.5849,United Kingdom,E01026219,LN69QS
1220,Mablethorpe,53.3409,0.261,United Kingdom,E01026073,LN122BS
1221,Barton upon Humber,53.6833,-0.45,United Kingdom,E01013256,DN185LE
1222,Bottesford,53.5521,-0.6714,United Kingdom,E01013265,DN172GL
1223,Holbeach,52.8037,0.0154,United Kingdom,E01026250,PE127DY
1224,Scartho,53.5399,-0.0926,United Kingdom,E01013192,DN332BT
1225,Immingham,53.6139,-0.2183,United Kingdom,E01013178,DN401NG
1226,Boultham,53.214,-0.5561,United Kingdom,E01026135,LN67TF
1227,Quarrington,52.987,-0.4304,United Kingdom,E01026234,NG348RS
1228,Deeping Saint James,52.6717,-0.2995,United Kingdom,E01026307,PE68HA
1229,Fishtoft,52.9617,0.0259,United Kingdom,E01026014,PE210RR
1230,Horncastle,53.208,-0.114,United Kingdom,E01026067,LN96AA
1231,Waltham,53.5165,-0.1021,United Kingdom,E01013213,DN370LJ
1232,Waddington,53.1664,-0.5389,United Kingdom,E01026185,LN59NT
1233,Market Deeping,52.6776,-0.3173,United Kingdom,E01026335,PE68AP
1234,Broughton,53.5638,-0.5465,United Kingdom,E01013276,DN200AB
1235,Humberston,53.5281,-0.0249,United Kingdom,E01013169,DN364DR
1236,Brigg,53.5529,-0.485,United Kingdom,E01013273,DN208RE
1237,Kirton,52.9278,-0.0598,United Kingdom,E01026018,PE201EH
1238,Ruskington,53.0444,-0.3875,United Kingdom,E01026222,NG349BX
1239,Pinchbeck,52.8147,-0.1605,United Kingdom,E01026260,PE113YT
1240,Winterton,53.6549,-0.5979,United Kingdom,E01013288,DN159PS
1241,Crowle,53.6073,-0.8321,United Kingdom,E01013249,DN174HW
1242,Long Sutton,52.7856,0.12,United Kingdom,E01026257,PE129HA
1243,Haxey,53.4868,-0.8462,United Kingdom,E01013250,DN92JU
1244,Sutton Bridge,52.771,0.1874,United Kingdom,E01026277,PE129RD
1245,Welton,53.3029,-0.4759,United Kingdom,E01026413,LN23JB
1246,Crowland,52.6768,-0.1688,United Kingdom,E01026240,PE60EG
1247,Branston,53.1944,-0.4717,United Kingdom,E01026189,LN41LB
1248,Woodhall Spa,53.1515,-0.2183,United Kingdom,E01026118,LN106QL
1249,Saxilby,53.2714,-0.6559999999999999,United Kingdom,E01026396,LN12QD
1250,Market Rasen,53.3871,-0.3355,United Kingdom,E01026389,LN83EN
1251,Coningsby,53.1051,-0.1752,United Kingdom,E01026054,LN44SJ
1252,Wyberton,52.95399999999999,-0.0412,United Kingdom,E01026031,PE217DD
1253,Epworth,53.525,-0.82,United Kingdom,E01013244,DN91HD
1254,Messingham,53.5273,-0.6535,United Kingdom,E01013327,DN173NU
1255,Holton le Clay,53.5055,-0.0585,United Kingdom,E01026063,DN365DH
1256,Metheringham,53.1391,-0.4034,United Kingdom,E01026213,LN43YY
1257,Whaplode,52.8002,-0.037,United Kingdom,E01026251,PE126TG
1258,Moulton,52.798,-0.0629,United Kingdom,E01026281,PE126QB
1259,Moulton Chapel,52.7463,-0.0841,United Kingdom,E01026282,PE120XQ
1260,Skellingthorpe,53.2364,-0.6165,United Kingdom,E01026225,LN65UW
1261,Alford,53.26,0.18,United Kingdom,E01026043,LN139AD
1262,Nettleham,53.2662,-0.4877,United Kingdom,E01026395,LN22PB
1263,Chapel Saint Leonards,53.223,0.3365,United Kingdom,E01026048,PE245TH
1264,Washingborough,53.2233,-0.4744,United Kingdom,E01026204,LN41BA
1265,Heckington,52.982,-0.304,United Kingdom,E01026202,NG349SD
1266,Leverington,52.6822,0.1359,United Kingdom,E01018094,PE135AB
1267,Laceby,53.541,-0.168,United Kingdom,E01013226,DN377DA
1268,Scotter,53.499,-0.6663,United Kingdom,E01026402,DN213UQ
1269,Spilsby,53.1727,0.0931,United Kingdom,E01026101,PE235HX
1270,Barrow upon Humber,53.675,-0.3818,United Kingdom,E01013305,DN197DD
1271,Belton,53.553,-0.8166,United Kingdom,E01013242,DN91NJ
1272,Gosberton,52.85,-0.15,United Kingdom,E01026247,PE114BE
1273,Healing,53.5739,-0.1639999999999999,United Kingdom,E01013223,DN417QD
1274,Heighington,53.212,-0.4574,United Kingdom,E01026206,LN41RJ
1275,Tattershall,53.104,-0.1906,United Kingdom,E01026054,LN44LQ
1276,Cranwell,53.0367,-0.4619,United Kingdom,E01026209,NG34
1277,Donington,52.904,-0.1982,United Kingdom,E01026242,PE114TB
1278,Burton upon Stather,53.6494,-0.6848,United Kingdom,E01013293,DN159DP
1279,Kirton in Lindsey,53.4759,-0.5887,United Kingdom,E01013322,DN214LX
1280,Caistor,53.494,-0.322,United Kingdom,E01026368,LN76NB
1281,Kettering,52.3931,-0.7229,United Kingdom,E01027113,NN156DD
1282,Corby,52.4914,-0.6965,United Kingdom,E01026949,NN171SZ
1283,Wellingborough,52.2939,-0.6964,United Kingdom,E01027317,NN82JH
1284,Rushden,52.288,-0.601,United Kingdom,E01027067,NN109YG
1285,Daventry,52.26,-1.16,United Kingdom,E01026987,NN114FE
1286,Brackley,52.032,-1.147,United Kingdom,E01027267,NN136EE
1287,Wootton,52.2007,-0.8857,United Kingdom,E01027204,NN46LW
1288,Desborough,52.4398,-0.8172,United Kingdom,E01027108,NN142PL
1289,Towcester,52.13,-0.99,United Kingdom,E01027299,NN126RQ
1290,Irthlingborough,52.324,-0.614,United Kingdom,E01027041,NN95GA
1291,Raunds,52.345,-0.537,United Kingdom,E01027051,NN96HS
1292,Great Billing,52.2577,-0.8222,United Kingdom,E01027141,NN39AB
1293,Rothwell,52.4254,-0.8029,United Kingdom,E01027126,NN146HZ
1294,Burton Latimer,52.365,-0.6779999999999999,United Kingdom,E01027091,NN155LF
1295,Higham Ferrers,52.3057,-0.5844,United Kingdom,E01027034,NN108HR
1296,Thrapston,52.397,-0.5379999999999999,United Kingdom,E01027076,NN144JH
1297,Oundle,52.48,-0.472,United Kingdom,E01027047,PE84DJ
1298,Earls Barton,52.26300000000001,-0.746,United Kingdom,E01027322,NN60NJ
1299,Brixworth,52.32899999999999,-0.904,United Kingdom,E01027003,NN69DQ
1300,Irchester,52.2783,-0.6555,United Kingdom,E01027335,NN297DH
1301,Kingsthorpe,52.2625,-0.9,United Kingdom,E01027229,NN27PN
1302,Finedon,52.34,-0.649,United Kingdom,E01027328,Finedoncentral postcode placeholder
1303,Long Buckby,52.303,-1.081,United Kingdom,E01027017,NN67RN
1304,Deanshanger,52.0473,-0.8928,United Kingdom,E01027281,MK196JP
1305,Wollaston,52.2564,-0.6694,United Kingdom,E01027355,NN297RU
1306,Moulton,52.2892,-0.8491,United Kingdom,E01027020,NN37UG
1307,Bugbrooke,52.2105,-1.0106,United Kingdom,E01027282,NN73PA
1308,Weedon Beck,52.231,-1.0804,United Kingdom,E01027025,NN74PB
1309,Blyth,55.12600000000001,-1.514,United Kingdom,E01027415,NE241DF
1310,Cramlington,55.082,-1.585,United Kingdom,E01027411,NE236DL
1311,Ashington,55.181,-1.568,United Kingdom,E01027528,NE630EH
1312,Bedlington,55.133,-1.5830000000000002,United Kingdom,E01027519,NE225LZ
1313,Morpeth,55.1675,-1.6908,United Kingdom,E01027453,NE611PY
1314,Berwick-Upon-Tweed,55.771,-2.007,United Kingdom,E01027377,TD151JS
1315,Hexham,54.971,-2.101,United Kingdom,E01027490,NE461LU
1316,Prudhoe,54.96100000000001,-1.849,United Kingdom,E01027500,NE425AB
1317,Ponteland,55.048,-1.747,United Kingdom,E01027466,NE209HE
1318,Choppington,55.145,-1.601,United Kingdom,E01027520,NE625TH
1319,Alnwick,55.4134,-1.7069,United Kingdom,E01033715,NE661HX
1320,Newbiggin-by-the-Sea,55.183,-1.515,United Kingdom,E01027544,NE646NQ
1321,Amble,55.3306,-1.5783,United Kingdom,E01027363,NE650PT
1322,Cowpen,55.127,-1.539,United Kingdom,E01027393,Cowpencentral postcode placeholder
1323,Seaton Delaval,55.0826,-1.4778,United Kingdom,E01027419,NE264RA
1324,Haltwhistle,54.97,-2.458,United Kingdom,E01027486,NE490BT
1325,Corbridge,54.975,-2.017,United Kingdom,E01027482,NE45
1326,Pegswood,55.1798,-1.6442,United Kingdom,E01027462,NE616TT
1327,Ellington,55.2209,-1.5621,United Kingdom,E01027446,NE615EX
1328,Stocksfield,54.948,-1.914,United Kingdom,E01027509,NE437NL
1329,Oxford,51.7519,-1.2578,United Kingdom,E01028522,OX11HB
1330,Banbury,52.06100000000001,-1.336,United Kingdom,E01028435,OX165BP
1331,Abingdon,51.667,-1.283,United Kingdom,E01033306,OX145EL
1332,Bicester,51.9,-1.15,United Kingdom,E01028467,OX266RW
1333,Witney,51.78,-1.49,United Kingdom,E01028819,Witneycentral postcode placeholder
1334,Didcot,51.606,-1.241,United Kingdom,E01028632,OX118SH
1335,Cowley,51.733,-1.215,United Kingdom,E01028528,OX43HB
1336,Carterton,51.76,-1.59,United Kingdom,E01028774,OX183JT
1337,Kidlington,51.823,-1.291,United Kingdom,E01028487,OX5
1338,Henley on Thames,51.536,-0.898,United Kingdom,E01028655,RG92LQ
1339,Wallingford,51.599,-1.125,United Kingdom,E01028677,OX100EW
1340,Thame,51.75,-0.97,United Kingdom,E01028668,OX9
1341,Wantage,51.589,-1.4269999999999998,United Kingdom,E01028756,OX128AH
1342,Grove,51.612,-1.421,United Kingdom,E01028724,OX120AL
1343,Faringdon,51.657,-1.586,United Kingdom,E01028718,SN77JP
1344,Chipping Norton,51.94,-1.55,United Kingdom,E01028783,OX75LX
1345,Chinnor,51.702,-0.911,United Kingdom,E01028613,OX394QB
1346,Cumnor,51.735,-1.332,United Kingdom,E01028710,OX29PY
1347,Littlemore,51.72,-1.227,United Kingdom,E01028553,OX44FW
1348,Benson,51.621,-1.111,United Kingdom,E01028599,OX106NX
1349,Eynsham,51.78100000000001,-1.375,United Kingdom,E01028785,OX294QB
1350,North Hinksey,51.749,-1.2919999999999998,United Kingdom,E01028740,OX20LB
1351,Wheatley,51.747,-1.139,United Kingdom,E01028684,OX331XX
1352,Cholsey,51.574,-1.151,United Kingdom,E01028619,OX109NZ
1353,Marston,51.777,-1.236,United Kingdom,E01028561,OX30PU
1354,Bloxham,52.018,-1.375,United Kingdom,E01028476,OX154ET
1355,Woodstock,51.845,-1.354,United Kingdom,E01028823,OX201UH
1356,Charlbury,51.872,-1.482,United Kingdom,E01028778,OX73
1357,Chalgrove,51.665,-1.077,United Kingdom,E01028609,OX447SR
1358,Adderbury,52.01600000000001,-1.3130000000000002,United Kingdom,E01028422,OX173LR
1359,Radley,51.68899999999999,-1.24,United Kingdom,E01028743,OX143AS
1360,Watlington,51.645,-1.008,United Kingdom,E01028680,OX495QB
1361,Wootton,51.707,-1.3130000000000002,United Kingdom,E01028752,OX15JX
1362,Bampton,51.727,-1.544,United Kingdom,E01028764,OX182JN
1363,Yarnton,51.81100000000001,-1.31,United Kingdom,E01028512,OX51NE
1364,Shrewsbury,52.708,-2.754,United Kingdom,E01028946,SY11ST
1365,Oswestry,52.8598,-3.0538,United Kingdom,E01028906,SY112NG
1366,Bridgnorth,52.535,-2.4195,United Kingdom,E01028833,WV164DD
1367,Ludlow,52.368,-2.718,United Kingdom,E01033526,SY81AE
1368,Whitchurch,52.969,-2.682,United Kingdom,E01028891,SY131AJ
1369,Shifnal,52.665,-2.373,United Kingdom,E01028856,TF119BG
1370,Wem,52.8536,-2.7267,United Kingdom,E01028890,SY45EE
1371,Baystonhill,52.6727,-2.7654,United Kingdom,E01028936,SY30EX
1372,Harlescott,52.7365,-2.7226,United Kingdom,E01028982,SY14PP
1373,Broseley,52.612,-2.481,United Kingdom,E01028838,TF125EN
1374,Church Stretton,52.539,-2.8080000000000003,United Kingdom,E01028997,SY66DL
1375,Albrighton,52.6344,-2.277,United Kingdom,E01028827,WV73JA
1376,Ellesmere,52.9082,-2.8944,United Kingdom,E01028865,SY120EN
1377,Highley,52.448,-2.382,United Kingdom,E01028849,WV166LP
1378,Gobowen,52.896,-3.0380000000000003,United Kingdom,E01028912,SY113JZ
1379,Pontesbury,52.649,-2.888,United Kingdom,E01028977,SY50PS
1380,Knighton,52.344,-3.049,United Kingdom,E01029003,LD71BL
1381,Cleobury Mortimer,52.3785,-2.4821,United Kingdom,E01029002,DY148BY
1382,Prees,52.897,-2.6660000000000004,United Kingdom,E01028880,SY132DL
1383,Much Wenlock,52.5966,-2.5580000000000003,United Kingdom,E01028852,TF136BP
1384,Shawbury,52.786,-2.655,United Kingdom,E01028884,SY44NH
1385,Whittington,52.874,-3.003,United Kingdom,E01028927,SY114PH
1386,Baschurch,52.791,-2.854,United Kingdom,E01028860,SY42AY
1387,Newcastle under Lyme,53.0109,-2.2278,United Kingdom,E01029604,ST51QE
1388,Burton upon Trent,52.8019,-1.6367,United Kingdom,E01032898,DE143QY
1389,Stafford,52.8066,-2.1171,United Kingdom,E01029701,ST162HN
1390,Lichfield,52.6835,-1.8265,United Kingdom,E01029526,WS136NF
1391,Cannock,52.691,-2.027,United Kingdom,E01029367,WS111DS
1392,Burntwood,52.6831,-1.92,United Kingdom,E01029489,WS72DG
1393,Kingswinford,52.4981,-2.1657,United Kingdom,E01009820,DY67AD
1394,Rugeley,52.7599,-1.9388,United Kingdom,E01029404,WS152AT
1395,Kidsgrove,53.0874,-2.2478,United Kingdom,E01029543,ST71DY
1396,Leek,53.108,-2.0234,United Kingdom,E01029804,ST136DP
1397,Biddulph,53.12,-2.17,United Kingdom,E01029766,ST86DY
1398,Hednesford,52.7115,-2.0006,United Kingdom,E01029387,WS124DL
1399,Stone,52.9,-2.15,United Kingdom,E01029756,ST150GZ
1400,Wombourn,52.5302,-2.1857,United Kingdom,E01029675,WV50LQ
1401,Uttoxeter,52.898,-1.86,United Kingdom,E01029461,ST148ET
1402,Cheadle,52.9849,-1.9865,United Kingdom,E01029783,ST101ER
1403,Trentham,52.9663,-2.1899,United Kingdom,E01014349,ST48LX
1404,Market Drayton,52.9044,-2.4848,United Kingdom,E01028873,TF91PF
1405,Great Wyrley,52.6593,-2.0102,United Kingdom,E01029644,WS66HY
1406,Wilnecote,52.6081,-1.6677,United Kingdom,E01029867,B775EN
1407,Penkridge,52.7252,-2.1164,United Kingdom,E01029659,ST195AL
1408,Audley,53.053,-2.3040000000000003,United Kingdom,E01029535,ST78JD
1409,Glascote,52.6245,-1.668,United Kingdom,E01029845,B772RL
1410,Codsall,52.6267,-2.1924,United Kingdom,E01029628,WV81AA
1411,Norton Canes,52.6833,-1.9666,United Kingdom,E01029394,WS73GF
1412,Shenstone,52.637,-1.841,United Kingdom,E01029522,WS140JB
1413,Brewood,52.6769,-2.1738,United Kingdom,E01029618,ST199BS
1414,Kinvere,52.4488,-2.228,United Kingdom,E01029649,DY76HG
1415,Branston,52.787,-1.659,United Kingdom,E01029414,DE143DR
1416,Cheddleton,53.06399999999999,-2.043,United Kingdom,E01029793,ST137JB
1417,Blythebridge,52.9704,-2.0709,United Kingdom,E01029800,ST119JB
1418,Silverdale,53.0159,-2.2675,United Kingdom,E01029594,ST56PS
1419,Gnosall,52.785,-2.2528,United Kingdom,E01029707,ST200EP
1420,Eccleshall,52.859,-2.251,United Kingdom,E01029698,ST216LA
1421,Huntington,52.715,-2.042,United Kingdom,E01029646,WS124PB
1422,Colwich,52.7875,-1.9806,United Kingdom,E01029711,ST170XQ
1423,Swynnerton,52.917,-2.217,United Kingdom,E01029749,ST150QE
1424,Fazeley,52.6154,-1.706,United Kingdom,E01029839,B783QL
1425,Barton under Needwood,52.76300000000001,-1.727,United Kingdom,E01029439,DE138JW
1426,Madeley,53.00100000000001,-2.341,United Kingdom,E01029574,CW39PR
1427,Keele,53.0044,-2.2871,United Kingdom,E01029576,ST55LT
1428,Chasetown,52.67,-1.92,United Kingdom,E01029506,WS74ST
1429,Endon,53.0788,-2.1112,United Kingdom,E01029776,ST99HH
1430,Tutbury,52.854,-1.686,United Kingdom,E01029465,DE139NS
1431,Barlaston,52.9457,-2.1583,United Kingdom,E01029682,ST129AA
1432,Alrewas,52.732,-1.749,United Kingdom,E01029478,DE137EE
1433,Whittington,52.67,-1.76,United Kingdom,E01029531,WS149LQ
1434,Wokingham,51.41,-0.84,United Kingdom,E01016626,RG402AL
1435,Woodley,51.453,-0.902,United Kingdom,E01016616,RG54JR
1436,Earley,51.433,-0.933,United Kingdom,E01016653,RG65QN
1437,Shinfield,51.408,-0.947,United Kingdom,E01032758,RG29EG
1438,Twyford,51.477,-0.867,United Kingdom,E01016692,RG109DR
1439,Barkham,51.402,-0.8759999999999999,United Kingdom,E01016612,RG414TE
1440,Nuneaton,52.523,-1.4680000000000002,United Kingdom,E01031043,CV114EJ
1441,Rugby,52.37,-1.26,United Kingdom,E01031145,CV225EH
1442,Royal Leamington Spa,52.292,-1.537,United Kingdom,E01033256,CV325JS
1443,Warwick,52.28,-1.59,United Kingdom,E01031324,CV344AX
1444,Bedworth,52.475,-1.477,United Kingdom,E01031063,CV128NT
1445,Stratford-upon-Avon,52.1928,-1.7064,United Kingdom,E01031229,CV376AH
1446,Kenilworth,52.341,-1.5659999999999998,United Kingdom,E01031307,CV82BG
1447,Whitnash,52.268,-1.524,United Kingdom,E01031327,CV312HS
1448,Atherstone,52.5787,-1.5462,United Kingdom,E01031010,CV91HD
1449,Polesworth,52.6152,-1.6174,United Kingdom,E01031039,B781HG
1450,Kingsbury,52.5614,-1.6917,United Kingdom,E01031033,B760EA
1451,Southam,52.252,-1.39,United Kingdom,E01031220,CV470JL
1452,Coleshill,52.499,-1.7080000000000002,United Kingdom,E01031021,B463LD
1453,Alcester,52.215,-1.876,United Kingdom,E01031185,B495EX
1454,Bilton,52.3594,-1.29,United Kingdom,E01031136,CV227XG
1455,Bulkington,52.4769,-1.425,United Kingdom,E01031067,CV129JD
1456,Studley,52.2696,-1.8915,United Kingdom,E01031242,B80
1457,Wellesbourne Hastings,52.1943,-1.5947,United Kingdom,E01031249,CV359QS
1458,Bidford-on-Avon,52.1644,-1.8567,United Kingdom,E01031192,B504AD
1459,Shipston on Stour,52.06,-1.6230000000000002,United Kingdom,E01031215,CV36
1460,Stoneleigh,52.3514,-1.5147,United Kingdom,E01031308,CV83BZ
1461,Water Orton,52.517,-1.736,United Kingdom,E01031042,B461QU
1462,Long Lawford,52.3841,-1.3019999999999998,United Kingdom,E01032895,CV239AE
1463,Dunchurch,52.3368,-1.2896,United Kingdom,E01031148,CV226NS
1464,Wolston,52.37,-1.39,United Kingdom,E01031153,CV83GD
1465,Chippenham,51.4585,-2.1158,United Kingdom,E01031912,SN15
1466,Salisbury,51.074,-1.7936,United Kingdom,E01032016,SP13YE
1467,Trowbridge,51.32,-2.21,United Kingdom,E01032086,BA14
1468,Warminster,51.205,-2.181,United Kingdom,E01032103,BA12
1469,Calne,51.438,-2.005,United Kingdom,E01031898,SN110EN
1470,Westbury,51.26,-2.191,United Kingdom,E01032115,BA133NZ
1471,Melksham,51.371,-2.138,United Kingdom,E01032068,SN12
1472,Corsham,51.43,-2.19,United Kingdom,E01031932,SN13
1473,Devizes,51.353,-1.994,United Kingdom,E01031854,SN10
1474,Royal Wootton Bassett,51.533,-1.9,United Kingdom,E01031963,SN4
1475,Amesbury,51.17,-1.77,United Kingdom,E01031975,SP47NH
1476,North Tidworth,51.237,-1.664,United Kingdom,E01032697,SP97PX
1477,Bradford-on-Avon,51.347,-2.251,United Kingdom,E01032050,BA151JX
1478,Marlborough,51.42,-1.73,United Kingdom,E01031865,SN8
1479,Durrington,51.199,-1.775,United Kingdom,E01031996,SP48
1480,Malmesbury,51.584,-2.0980000000000003,United Kingdom,E01031949,SN169
1481,Roundway,51.368,-1.981,United Kingdom,E01032693,SN10
1482,Hilperton,51.33,-2.184,United Kingdom,E01032080,BA147
1483,Lyneham,51.507,-1.966,United Kingdom,E01031946,SN154ST
1484,Cricklade,51.64100000000001,-1.856,United Kingdom,E01031936,SN66BB
1485,Bulford,51.19,-1.761,United Kingdom,E01031989,SP49DR
1486,Purton,51.588,-1.867,United Kingdom,E01031955,SN54AB
1487,Pewsey,51.339,-1.765,United Kingdom,E01031870,SN95DH
1488,Wilton,51.08,-1.864,United Kingdom,E01032038,SP20DF
1489,Box,51.415,-2.252,United Kingdom,E01031888,SN138NZ
1490,Redlynch,50.988,-1.712,United Kingdom,E01031994,SP52HH
1491,Downton,50.993,-1.743,United Kingdom,E01031993,SP53PG
1492,Colerne,51.43899999999999,-2.262,United Kingdom,E01031929,SN148DD
1493,Mere,51.09,-2.266,United Kingdom,E01032037,BA126
1494,Worcester,52.192,-2.22,United Kingdom,E01033248,WR12QN
1495,Redditch,52.3069,-1.9492,United Kingdom,E01032234,B976HN
1496,Kidderminster,52.3885,-2.249,United Kingdom,E01032434,DY101EH
1497,Bromsgrove,52.3353,-2.0579,United Kingdom,E01032157,B602BW
1498,Droitwich,52.267,-2.153,United Kingdom,E01032358,WR98RZ
1499,Evesham,52.092,-1.947,United Kingdom,E01032343,WR11
1500,Torton,52.4522,-2.1606,United Kingdom,E01009848,DY83UJ
1501,Bewdley,52.3752,-2.3162,United Kingdom,E01032482,DY122DH
1502,Pershore,52.114,-2.08,United Kingdom,E01032406,WR101EQ
1503,Alvechurch,52.3506,-1.9647,United Kingdom,E01032124,B487NW
1504,Malvern Link,52.1255,-2.3161,United Kingdom,E01032195,WR141SF
1505,Stoke Prior,52.3025,-2.0849,United Kingdom,E01032166,B604NA
1506,Hagley,52.43,-2.12,United Kingdom,E01009853,DY99JY
1507,Tenbury,52.31,-2.59,United Kingdom,E01032214,WR158SF
1508,Malvern Wells,52.0785,-2.3324,United Kingdom,E01032218,WR144HB
1509,Tardebigge,52.322,-2.007,United Kingdom,E01033243,B601NE
1510,Upton upon Severn,52.063,-2.215,United Kingdom,E01032215,WR80JY
1511,Lickey End,52.3522,-2.0448,United Kingdom,E01032155,B601JU
1512,Badsey,52.08,-1.89,United Kingdom,E01032341,WR117EZ
1513,Kempsey,52.1391,-2.2177,United Kingdom,E01032192,WR53NB
1514,Clent,52.4152,-2.114,United Kingdom,E01032141,DY99PU
1515,Hartlebury,52.33,-2.23,United Kingdom,E01032387,DY117XL
1516,Bredon,52.03,-2.117,United Kingdom,E01032347,GL207
1517,Broadway,52.04,-1.86,United Kingdom,E01032351,WR12
