city,lat,lng,country,LSOA
Dagenham,51.5397,0.1422,United Kingdom,E01000084
Barking,51.54,0.08,United Kingdom,E01000007
Edgware,51.6185,-0.2729,United Kingdom,E01000192
Finchley,51.599,-0.187,United Kingdom,E01000197
Hendon,51.5837,-0.2252,United Kingdom,E01000237
Barnet,51.6444,-0.1997,United Kingdom,E01000289
Mill Hill,51.62,-0.23,United Kingdom,E01000261
Friern Barnet,51.6126,-0.1584,United Kingdom,E01000162
East Barnet,51.643,-0.163,United Kingdom,E01000174
East Finchley,51.5902,-0.1753,United Kingdom,E01000183
Totteridge,51.6354,-0.2,United Kingdom,E01000291
Erith,51.48,0.1778,United Kingdom,E01000403
Sidcup,51.4263,0.1024,United Kingdom,E01000457
Welling,51.4594,0.1097,United Kingdom,E01000388
Bexleyheath,51.458999999999996,0.138,United Kingdom,E01000360
Wembley,51.5528,-0.2979,United Kingdom,E01000635
Kenton,51.5878,-0.3086,United Kingdom,E01002175
Dollis Hill,51.5641,-0.2341,United Kingdom,E01000501
Wealdstone,51.5957,-0.3352,United Kingdom,E01002179
Bromley,51.407,0.021,United Kingdom,E01000825
Beckenham,51.408,-0.022000000000000002,United Kingdom,E01000714
Hayes,51.378,0.0192,United Kingdom,E01000767
Chislehurst,51.412,0.075,United Kingdom,E01000696
Farnborough,51.3591,0.0741,United Kingdom,E01000752
Chelsfield,51.3582,0.1278,United Kingdom,E01000685
West Wickham,51.3765,-0.0193,United Kingdom,E01000835
Bickley,51.4003,0.0466,United Kingdom,E01000651
Holborn,51.5172,-0.1182,United Kingdom,E01000914
Highgate,51.5716,-0.1448,United Kingdom,E01002009
Croydon,51.3727,-0.1099,United Kingdom,E01001014
Thornton Heath,51.4002,-0.1086,United Kingdom,E01000996
Coulsdon,51.3211,-0.1386,United Kingdom,E01001023
Shirley,51.3813,-0.0543,United Kingdom,E01001134
Sanderstead,51.3358,-0.0818,United Kingdom,E01001102
Ealing,51.5175,-0.2988,United Kingdom,E01001225
Southall,51.5121,-0.3779,United Kingdom,E01001213
Acton,51.5135,-0.2707,United Kingdom,E01001199
Greenford,51.5299,-0.3488,United Kingdom,E01001260
Northolt,51.547,-0.36200000000000004,United Kingdom,E01001319
Hanwell,51.5189,-0.3376,United Kingdom,E01001288
Perivale,51.5383,-0.3192,United Kingdom,E01001343
Sudbury,51.5537,-0.3199,United Kingdom,E01000611
Enfield,51.6522,-0.0808,United Kingdom,E01001450
Edmonton,51.6154,-0.0708,United Kingdom,E01001425
Enfield Lock,51.6686,-0.026000000000000002,United Kingdom,E01001449
Palmers Green,51.6178,-0.1092,United Kingdom,E01001498
Southgate,51.6316,-0.1265,United Kingdom,E01001519
Woolwich,51.488,0.063,United Kingdom,E01001696
Eltham,51.451,0.052000000000000005,United Kingdom,E01001615
Plumstead,51.49,0.09,United Kingdom,E01001673
Kidbrooke,51.465,0.033,United Kingdom,E01001623
Hackney,51.5414,-0.0266,United Kingdom,E01001849
Fulham,51.4828,-0.195,United Kingdom,E01001880
Tottenham,51.588,-0.07200000000000001,United Kingdom,E01002066
Wood Green,51.5981,-0.1149,United Kingdom,E01002098
Hornsey,51.586999999999996,-0.11800000000000001,United Kingdom,E01002014
Harrow,51.5836,-0.3464,United Kingdom,E01002160
Pinner,51.5932,-0.3894,United Kingdom,E01002192
Stanmore,51.618,-0.314,United Kingdom,E01002226
Harrow on the Hill,51.5655,-0.3327,United Kingdom,E01002134
Harrow Weald,51.604,-0.33899999999999997,United Kingdom,E01002142
Hatch End,51.601000000000006,-0.3743,United Kingdom,E01002152
Romford,51.5768,0.1801,United Kingdom,E01002356
Hornchurch,51.5565,0.2128,United Kingdom,E01002364
Upminster,51.5557,0.2512,United Kingdom,E01002386
Hayes,51.5127,-0.4211,United Kingdom,E01002502
Uxbridge,51.5404,-0.4778,United Kingdom,E01002523
Ruislip,51.576,-0.433,United Kingdom,E01002534
West Drayton,51.5043,-0.4646,United Kingdom,E01002526
Yiewsley,51.51300000000001,-0.47100000000000003,United Kingdom,E01002552
Ickenham,51.558,-0.4484,United Kingdom,E01002463
Cowley,51.528,-0.48100000000000004,United Kingdom,E01002518
Harefield,51.6034,-0.478,United Kingdom,E01002439
Hounslow,51.4668,-0.375,United Kingdom,E01002664
Feltham,51.4496,-0.4089,United Kingdom,E01002593
Islington,51.544,-0.1027,United Kingdom,E01002791
Highbury,51.552,-0.09699999999999999,United Kingdom,E01002738
Kensington,51.5,-0.19,United Kingdom,E01002889
Surbiton,51.394,-0.307,United Kingdom,E01002987
Kingston upon Thames,51.4103,-0.2995,United Kingdom,E01002964
Brixton,51.463,-0.106,United Kingdom,E01003051
Streatham,51.4279,-0.1235,United Kingdom,E01003148
Lambeth,51.4903,-0.1193,United Kingdom,E01003109
Catford,51.4452,-0.0207,United Kingdom,E01003324
Wimbledon,51.422,-0.20800000000000002,United Kingdom,E01003401
Mitcham,51.4009,-0.1517,United Kingdom,E01003435
Morden,51.4015,-0.1949,United Kingdom,E01003426
Raynes Park,51.4033,-0.2321,United Kingdom,E01003471
East Ham,51.5323,0.0554,United Kingdom,E01003523
Stratford,51.5423,-0.0026,United Kingdom,E01003617
West Ham,51.5347,0.0077,United Kingdom,E01003633
Ilford,51.5588,0.0855,United Kingdom,E01003686
Goodmayes,51.5584,0.1119,United Kingdom,E01003716
Snaresbrook,51.586999999999996,0.0146,United Kingdom,E01003775
Wanstead,51.5778,0.0286,United Kingdom,E01003777
Twickenham,51.449,-0.337,United Kingdom,E01003870
Richmond,51.456,-0.301,United Kingdom,E01003821
Hampton,51.422,-0.3670000000000001,United Kingdom,E01003830
Kew Green,51.5308,-0.2248,United Kingdom,E01000532
Sutton,51.3656,-0.1963,United Kingdom,E01004142
Carshalton,51.3652,-0.1676,United Kingdom,E01004098
Wallington,51.3647,-0.1403,United Kingdom,E01004079
Worcester Park,51.3752,-0.239,United Kingdom,E01004121
Cheam,51.36,-0.21,United Kingdom,E01004157
Stepney,51.5152,-0.0462,United Kingdom,E01004289
Spitalfields,51.5166,-0.075,United Kingdom,E01004310
Walthamstow,51.59,-0.0,United Kingdom,E01004471
Chingford,51.631,0.016,United Kingdom,E01004353
Leyton,51.5606,-0.0155,United Kingdom,E01004429
Wandsworth,51.455,-0.192,United Kingdom,E01004513
Balham,51.4434,-0.1525,United Kingdom,E01004545
Bolton,53.578,-2.4290000000000003,United Kingdom,E01004848
Farnworth,53.5452,-2.3999,United Kingdom,E01004860
Westhoughton,53.549,-2.529,United Kingdom,E01004936
Horwich,53.592,-2.54,United Kingdom,E01004883
Kearsley,53.53,-2.37,United Kingdom,E01004908
Little Lever,53.563,-2.369,United Kingdom,E01004913
Blackrod,53.5898,-2.5809,United Kingdom,E01004782
Bury,53.593,-2.298,United Kingdom,E01005027
Prestwich,53.5333,-2.2833,United Kingdom,E01005036
Radcliffe,53.5615,-2.3268,United Kingdom,E01005008
Whitefield,53.5521,-2.2992,United Kingdom,E01004989
Ramsbottom,53.6484,-2.3169,United Kingdom,E01005014
Tottington,53.613,-2.339,United Kingdom,E01005051
Manchester,53.4794,-2.2453,United Kingdom,E01033677
Wythenshawe,53.391999999999996,-2.2640000000000002,United Kingdom,E01005087
Northenden,53.4075,-2.2583,United Kingdom,E01005268
Baguley,53.398999999999994,-2.276,United Kingdom,E01005112
Moston,53.5156,-2.1848,United Kingdom,E01005249
Oldham,53.5444,-2.1169,United Kingdom,E01005350
Royton,53.566,-2.121,United Kingdom,E01005392
Failsworth,53.5102,-2.1575,United Kingdom,E01005371
Hollinwood,53.5183,-2.144,United Kingdom,E01005362
Lees,53.538000000000004,-2.069,United Kingdom,E01005419
Rochdale,53.6136,-2.161,United Kingdom,E01005484
Middleton,53.555,-2.187,United Kingdom,E01005538
Heywood,53.59,-2.219,United Kingdom,E01005504
Milnrow,53.6101,-2.1111,United Kingdom,E01005556
Castleton,53.5907,-2.1737,United Kingdom,E01005477
Littleborough,53.644,-2.0980000000000003,United Kingdom,E01005522
Wardle,53.647,-2.1319999999999997,United Kingdom,E01005593
Salford,53.483000000000004,-2.2931,United Kingdom,E01005654
Eccles,53.4824,-2.339,United Kingdom,E01005599
Walkden,53.5239,-2.3991,United Kingdom,E01005708
Swinton,53.5122,-2.3412,United Kingdom,E01005686
Irlam,53.445,-2.4219999999999997,United Kingdom,E01005620
Little Hulton,53.53,-2.418,United Kingdom,E01005704
Pendlebury,53.5075,-2.3154,United Kingdom,E01005699
Barton upon Irwell,53.476000000000006,-2.36,United Kingdom,E01005603
Worsley,53.5093,-2.3845,United Kingdom,E01005740
Stockport,53.4083,-2.1494,United Kingdom,E01005872
Reddish,53.4383,-2.1613,United Kingdom,E01005893
Cheadle Hulme,53.3761,-2.1897,United Kingdom,E01005786
Marple,53.397,-2.061,United Kingdom,E01005885
Bramhall,53.357,-2.164,United Kingdom,E01005925
Hazel Grove,53.375,-2.1109999999999998,United Kingdom,E01005841
Bredbury,53.42,-2.113,United Kingdom,E01005751
Cheadle,53.3933,-2.2113,United Kingdom,E01005774
Disley,53.357,-2.043,United Kingdom,E01018587
Ashton,53.4897,-2.0952,United Kingdom,E01005948
Denton,53.4554,-2.1122,United Kingdom,E01005974
Hyde,53.4474,-2.082,United Kingdom,E01006039
Stalybridge,53.4834,-2.04,United Kingdom,E01006069
Droylsden,53.4828,-2.1582,United Kingdom,E01006002
Dukinfield,53.4739,-2.0828,United Kingdom,E01006011
Mossley,53.5147,-2.0387,United Kingdom,E01006058
Sale,53.424,-2.322,United Kingdom,E01006160
Altrincham,53.3838,-2.3547,United Kingdom,E01006077
Stretford,53.4466,-2.3086,United Kingdom,E01006180
Urmston,53.4487,-2.3747,United Kingdom,E01006128
Davyhulme,53.4559,-2.3683,United Kingdom,E01006123
Timperley,53.387,-2.3280000000000003,United Kingdom,E01006140
Flixton,53.446999999999996,-2.391,United Kingdom,E01006130
Bowdon,53.37600000000001,-2.366,United Kingdom,E01006085
Partington,53.42,-2.43,United Kingdom,E01006104
Wigan,53.5448,-2.6318,United Kingdom,E01006369
Leigh,53.4975,-2.515,United Kingdom,E01006333
Hindley,53.5355,-2.5658,United Kingdom,E01006275
Golborne,53.4758,-2.5943,United Kingdom,E01006342
Ashton in Makerfield,53.486999999999995,-2.641,United Kingdom,E01006265
Atherton,53.523,-2.495,United Kingdom,E01006244
Tyldesley,53.5166,-2.4667,United Kingdom,E01006295
Ince-in-Makerfield,53.5402,-2.5989999999999998,United Kingdom,E01006308
Lowton,53.471000000000004,-2.569,United Kingdom,E01006347
Pemberton,53.536,-2.6738,United Kingdom,E01006359
Standish,53.58600000000001,-2.6639999999999997,United Kingdom,E01006238
Bryn,53.498999999999995,-2.657,United Kingdom,E01006266
Astley,53.5008,-2.4454,United Kingdom,E01006250
Shevington,53.571999999999996,-2.69,United Kingdom,E01006312
Abram,53.508,-2.588,United Kingdom,E01006212
Kirkby,53.4826,-2.892,United Kingdom,E01006455
Huyton,53.41,-2.843,United Kingdom,E01006475
Halewood,53.3599,-2.84,United Kingdom,E01006427
Knowsley,53.4498,-2.8501,United Kingdom,E01006438
Prescot,53.422,-2.8139999999999996,United Kingdom,E01006464
Roby,53.413000000000004,-2.852,United Kingdom,E01006451
Liverpool,53.4,-2.9833,United Kingdom,E01033754
Fazakerley,53.4676,-2.9408,United Kingdom,E01006654
Deysbrook,53.428999999999995,-2.9339999999999997,United Kingdom,E01006763
West Derby,53.4338,-2.907,United Kingdom,E01006619
Childwall,53.395,-2.8810000000000002,United Kingdom,E01006580
Eastham,53.313,-2.9619999999999997,United Kingdom,E01007167
Dingle,53.3774,-2.9613,United Kingdom,E01032505
Woolton,53.373999999999995,-2.865,United Kingdom,E01006798
Aintree,53.4793,-2.9373,United Kingdom,E01007044
Saint Helens,53.4541,-2.7461,United Kingdom,E01006877
Newton in Makerfield,53.45,-2.633,United Kingdom,E01006860
Thatto Heath,53.4352,-2.7481,United Kingdom,E01006907
Haydock,53.4678,-2.6609,United Kingdom,E01006842
Rainhill,53.4157,-2.7625,United Kingdom,E01006894
Earlestown,53.45,-2.65,United Kingdom,E01006865
Eccleston,53.4539,-2.7748,United Kingdom,E01006822
Rainford,53.503,-2.783,United Kingdom,E01006882
Billinge,53.4932,-2.7129,United Kingdom,E01006807
Garswood,53.488,-2.67,United Kingdom,E01006808
Southport,53.6475,-3.0053,United Kingdom,E01006968
Bootle,53.4457,-2.9891,United Kingdom,E01006961
Crosby,53.4872,-3.0343,United Kingdom,E01007109
Formby,53.5586,-3.0666,United Kingdom,E01007081
Litherland,53.4727,-2.9989999999999997,United Kingdom,E01006978
Maghull,53.5174,-2.9449,United Kingdom,E01007095
Ainsdale,53.6021,-3.0405,United Kingdom,E01006921
Blundellsands,53.48,-3.05,United Kingdom,E01006942
Lydiate,53.536,-2.9589999999999996,United Kingdom,E01007067
Melling,53.495,-2.927,United Kingdom,E01007044
Birkenhead,53.393,-3.014,United Kingdom,E01007126
Wallasey,53.4158,-3.0233,United Kingdom,E01007277
Moreton,53.401,-3.111,United Kingdom,E01007208
Upton,53.385,-3.0989999999999998,United Kingdom,E01007298
Bebington,53.35,-3.003,United Kingdom,E01007152
Seacombe,53.409,-3.029,United Kingdom,E01007272
Bidston,53.402,-3.0780000000000003,United Kingdom,E01007120
New Brighton,53.431999999999995,-3.049,United Kingdom,E01007229
Bromborough,53.33600000000001,-2.978,United Kingdom,E01007135
Rock Ferry,53.37300000000001,-3.008,United Kingdom,E01007295
Heswall,53.328,-3.0989999999999998,United Kingdom,E01007184
Woodchurch,53.375,-3.0839999999999996,United Kingdom,E01007303
Hoylake,53.39,-3.18,United Kingdom,E01007194
Great Meols,53.4014,-3.1553,United Kingdom,E01007199
Barnsley,53.5537,-1.4791,United Kingdom,E01007336
Penistone,53.525,-1.629,United Kingdom,E01007429
Darton,53.585,-1.5325,United Kingdom,E01007358
Wombwell,53.51600000000001,-1.4,United Kingdom,E01007451
Hoyland Nether,53.4985,-1.4406,United Kingdom,E01007389
Cudworth,53.5784,-1.4149,United Kingdom,E01007345
Royston,53.61,-1.45,United Kingdom,E01007438
Darfield,53.538000000000004,-1.3812,United Kingdom,E01007352
Dodworth,53.5417,-1.5214,United Kingdom,E01007383
Worsborough,53.52,-1.47,United Kingdom,E01007398
Bolton upon Dearne,53.5197,-1.3148,United Kingdom,E01007365
Silkstone,53.5489,-1.5634,United Kingdom,E01007419
Doncaster,53.515,-1.133,United Kingdom,E01007530
Hatfield,53.58,-1.0,United Kingdom,E01007553
Adwick le Street,53.5677,-1.1931,United Kingdom,E01007464
Mexborough,53.4992,-1.2830000000000001,United Kingdom,E01007576
Armthorpe,53.5352,-1.0522,United Kingdom,E01007482
Conisbrough,53.479,-1.227,United Kingdom,E01007537
Rossington,53.4759,-1.0613,United Kingdom,E01007591
Harlington,53.481,-1.182,United Kingdom,E01007548
Stainforth,53.5958,-1.0253,United Kingdom,E01007628
Askern,53.6167,-1.15,United Kingdom,E01007492
Tickhill,53.4305,-1.1135,United Kingdom,E01007616
Norton,53.633,-1.175,United Kingdom,E01007487
Carcroft,53.58,-1.17,United Kingdom,E01007473
Skellow,53.58,-1.19,United Kingdom,E01007474
Warmsworth,53.5,-1.18,United Kingdom,E01007551
Auckley,53.501999999999995,-1.018,United Kingdom,E01007600
Brodsworth,53.5596,-1.237,United Kingdom,E01007587
Cantley,53.51,-1.06,United Kingdom,E01007604
Rotherham,53.43,-1.357,United Kingdom,E01007714
Rawmarsh,53.4636,-1.3439,United Kingdom,E01007782
Maltby,53.426,-1.21,United Kingdom,E01007762
Swinton,53.4877,-1.3149,United Kingdom,E01007796
Swallownest,53.3623,-1.3251,United Kingdom,E01007671
Wath upon Dearne,53.5022,-1.3402,United Kingdom,E01007821
Dinnington,53.3667,-1.2,United Kingdom,E01007791
Bramley,53.4253,-1.2648,United Kingdom,E01007684
Wickersley,53.4199,-1.2792,United Kingdom,E01007686
Whiston,53.4,-1.32,United Kingdom,E01007812
Thrybergh,53.45,-1.3,United Kingdom,E01007719
Treeton,53.3845,-1.3513,United Kingdom,E01007701
West Melton,53.5035,-1.3618,United Kingdom,E01007697
Kilnhurst,53.4703,-1.3057,United Kingdom,E01007772
Elsecar,53.496,-1.412,United Kingdom,E01007394
Sheffield,53.3833,-1.4667,United Kingdom,E01033264
Ecclesfield,53.4429,-1.4698,United Kingdom,E01008138
Ecclesall,53.361999999999995,-1.4980000000000002,United Kingdom,E01008048
Fulwood,53.365,-1.544,United Kingdom,E01007958
Woodhouse,53.358000000000004,-1.3730000000000002,United Kingdom,E01007964
Mosbrough,53.325,-1.3619999999999999,United Kingdom,E01008024
Stannington,53.396,-1.536,United Kingdom,E01008131
Chapeltown,53.461999999999996,-1.466,United Kingdom,E01007894
Handsworth,53.37,-1.4,United Kingdom,E01007910
Stocksbridge,53.478,-1.588,United Kingdom,E01008142
Wadsley,53.41,-1.52,United Kingdom,E01007988
Dore,53.3268,-1.5345,United Kingdom,E01007920
Grenoside,53.441,-1.5019999999999998,United Kingdom,E01008141
Oughtibridge,53.43600000000001,-1.5390000000000001,United Kingdom,E01008140
Gateshead,54.95,-1.6,United Kingdom,E01008251
Whickham,54.9456,-1.6726,United Kingdom,E01008264
Blaydon,54.963,-1.7187,United Kingdom,E01008177
Newburn,54.983000000000004,-1.743,United Kingdom,E01008404
Felling,54.95,-1.564,United Kingdom,E01008216
Birtley,54.9,-1.577,United Kingdom,E01008222
Rowlands Gill,54.9209,-1.7441,United Kingdom,E01008185
Sheriff Hill,54.93899999999999,-1.5859999999999999,United Kingdom,E01008219
Lamesley,54.916000000000004,-1.608,United Kingdom,E01008194
Swalwell,54.95399999999999,-1.6840000000000002,United Kingdom,E01008263
Newcastle,55.0077,-1.6578,United Kingdom,E01008339
Gosforth,55.007,-1.6230000000000002,United Kingdom,E01008355
Longbenton,55.0,-1.57,United Kingdom,E01008316
Lemington,54.972,-1.723,United Kingdom,E01008387
Tynemouth,55.016999999999996,-1.423,United Kingdom,E01008558
Wallsend,54.99100000000001,-1.534,United Kingdom,E01008536
Whitley Bay,55.0456,-1.4443,United Kingdom,E01008584
North Shields,55.0097,-1.4448,United Kingdom,E01008524
Killingworth,55.0318,-1.5557,United Kingdom,E01008506
Monkseaton,55.043,-1.459,United Kingdom,E01008520
Cullercoats,55.033,-1.433,United Kingdom,E01008496
Shiremoor,55.0366,-1.5048,United Kingdom,E01008567
South Shields,54.995,-1.43,United Kingdom,E01008596
Jarrow,54.9797,-1.4804,United Kingdom,E01008600
Hebburn,54.9718,-1.5128,United Kingdom,E01008646
West Boldon,54.9447,-1.4409,United Kingdom,E01008614
Harton,54.881,-1.534,United Kingdom,E01008865
Sunderland,54.9061,-1.3811,United Kingdom,E01008703
Washington,54.9,-1.52,United Kingdom,E01008852
Houghton le Spring,54.841,-1.4680000000000002,United Kingdom,E01008715
Hetton le Hole,54.8208,-1.4488,United Kingdom,E01008742
Southwick,54.9193,-1.4062,United Kingdom,E01033075
Ryhope,54.8679,-1.3698,United Kingdom,E01008769
Usworth,54.94,-1.55,United Kingdom,E01008231
Birmingham,52.48,-1.9025,United Kingdom,E01033620
Sutton Coldfield,52.563,-1.8219999999999998,United Kingdom,E01009449
Small Heath,52.4629,-1.8542,United Kingdom,E01009338
Bournville,52.4299,-1.9355,United Kingdom,E01008951
Northfield,52.408,-1.963,United Kingdom,E01009210
Longbridge,52.395,-1.979,United Kingdom,E01009166
Kings Norton,52.4072,-1.9272,United Kingdom,E01009119
Perry Barr,52.5249,-1.9042,United Kingdom,E01009242
Harborne,52.46,-1.95,United Kingdom,E01009069
Erdington,52.5236,-1.8378,United Kingdom,E01009007
Castle Bromwich,52.505,-1.7856,United Kingdom,E01010122
Coventry,52.4081,-1.5106,United Kingdom,E01009642
Exhall,52.47,-1.48,United Kingdom,E01031098
Dudley,52.508,-2.089,United Kingdom,E01009881
Stourbridge,52.4575,-2.1479,United Kingdom,E01009906
Halesowen,52.4502,-2.0509,United Kingdom,E01009733
Tipton,52.5259,-2.0751,United Kingdom,E01010068
Netherton,52.4908,-2.0835,United Kingdom,E01009842
Brierley Hill,52.4795,-2.1245,United Kingdom,E01009744
Amblecote,52.46,-2.16,United Kingdom,E01009905
Wollaston,52.4619,-2.1663,United Kingdom,E01009904
Gornalwood,52.523,-2.124,United Kingdom,E01009781
Wordsley,52.483000000000004,-2.15,United Kingdom,E01009911
Coseley,52.55,-2.083,United Kingdom,E01009763
Lye,52.458999999999996,-2.116,United Kingdom,E01009836
Sedgley,52.54,-2.123,United Kingdom,E01009773
West Bromwich,52.519,-1.995,United Kingdom,E01010106
Rowley Regis,52.48,-2.06,United Kingdom,E01010039
Oldbury,52.505,-2.0159,United Kingdom,E01010017
Smethwick,52.4928,-1.9682,United Kingdom,E01010057
Solihull,52.413000000000004,-1.778,United Kingdom,E01010198
Sheldon,52.45,-1.7666,United Kingdom,E01009320
Bickenhill,52.43899999999999,-1.725,United Kingdom,E01010109
Olton,52.4377,-1.8058,United Kingdom,E01010177
Dorridge,52.372,-1.7554,United Kingdom,E01010186
Knowle,52.3881,-1.7318,United Kingdom,E01010151
Marston Green,52.465,-1.74,United Kingdom,E01010112
Berkswell,52.409,-1.642,United Kingdom,E01010168
Meriden,52.4379,-1.6496,United Kingdom,E01010165
Walsall,52.58,-1.98,United Kingdom,E01010370
Aldridge,52.606,-1.9179,United Kingdom,E01010243
Willenhall,52.5798,-2.0605,United Kingdom,E01010418
Darlaston,52.5708,-2.0457,United Kingdom,E01010312
Bloxwich,52.614,-2.004,United Kingdom,E01010287
Streetly,52.577,-1.8840000000000001,United Kingdom,E01010387
Walsall Wood,52.6277,-1.9301,United Kingdom,E01010254
Brownhills,52.647,-1.933,United Kingdom,E01010308
Rushall,52.611000000000004,-1.9569999999999999,United Kingdom,E01010321
Pelsall,52.631,-1.972,United Kingdom,E01010347
Wolverhampton,52.5833,-2.1333,United Kingdom,E01010464
Bilston,52.566,-2.0728,United Kingdom,E01010422
Wednesfield,52.5998,-2.0817,United Kingdom,E01010474
Tettenhall,52.5983,-2.168,United Kingdom,E01010547
Bushbury,52.62,-2.113,United Kingdom,E01010441
Keighley,53.867,-1.911,United Kingdom,E01010710
Thornton,53.7898,-1.8504,United Kingdom,E01010798
Clayton,53.782,-1.8135,United Kingdom,E01010637
Bingley,53.8509,-1.838,United Kingdom,E01010585
Shipley,53.833,-1.777,United Kingdom,E01033689
Baildon,53.851000000000006,-1.7630000000000001,United Kingdom,E01010574
Wyke,53.7369,-1.77,United Kingdom,E01010871
Ilkley,53.925,-1.8219999999999998,United Kingdom,E01010695
Wibsey,53.7672,-1.7728,United Kingdom,E01010749
Silsden,53.913999999999994,-1.9369999999999998,United Kingdom,E01010640
Burley in Wharfedale,53.9137,-1.7480000000000002,United Kingdom,E01010769
Haworth,53.83,-1.96,United Kingdom,E01010856
Utley,53.88,-1.91,United Kingdom,E01010728
Wilsden,53.8167,-1.8667,United Kingdom,E01010593
Menston,53.8912,-1.7344,United Kingdom,E01010773
Steeton,53.896,-1.9480000000000002,United Kingdom,E01010645
Addingham,53.9333,-1.8833,United Kingdom,E01010647
Denholme,53.802,-1.8940000000000001,United Kingdom,E01010594
Cullingworth,53.8247,-1.9027,United Kingdom,E01010590
Oxenhope,53.812,-1.952,United Kingdom,E01010858
Halifax,53.725,-1.8630000000000002,United Kingdom,E01010994
Brighouse,53.707,-1.794,United Kingdom,E01010875
Queensbury,53.7683,-1.8453,United Kingdom,E01010753
Todmorden,53.713,-2.096,United Kingdom,E01010983
Ovenden,53.7432,-1.8779,United Kingdom,E01010940
Sowerby Bridge,53.71,-1.91,United Kingdom,E01010980
Elland,53.683,-1.84,United Kingdom,E01010893
Greetland,53.6869,-1.8714,United Kingdom,E01010900
Stainland,53.6728,-1.8805,United Kingdom,E01010896
Hipperholme,53.7258,-1.8119999999999998,United Kingdom,E01010909
Ripponden,53.672,-1.946,United Kingdom,E01010954
Mytholmroyd,53.73,-1.9809999999999999,United Kingdom,E01010919
Luddenden Foot,53.7178,-1.9381,United Kingdom,E01010922
Huddersfield,53.645,-1.7798,United Kingdom,E01011229
Dewsbury,53.691,-1.633,United Kingdom,E01011130
Batley,53.716,-1.6269999999999998,United Kingdom,E01011023
Mirfield,53.6807,-1.6888,United Kingdom,E01011218
Liversedge,53.7067,-1.69,United Kingdom,E01011250
Almondbury,53.6344,-1.7489,United Kingdom,E01011010
Golcar,53.6378,-1.8457,United Kingdom,E01011147
Heckmondwike,53.708,-1.67,United Kingdom,E01011167
Cleckheaton,53.725,-1.719,United Kingdom,E01011060
Denby Dale,53.571999999999996,-1.655,United Kingdom,E01011116
Birstall,53.7343,-1.6609,United Kingdom,E01011059
Meltham,53.592,-1.85,United Kingdom,E01011175
Thornhill,53.6622,-1.6124,United Kingdom,E01011256
Honley,53.6027,-1.7921,United Kingdom,E01011172
Holmfirth,53.57,-1.787,United Kingdom,E01011181
Skelmanthorpe,53.591,-1.649,United Kingdom,E01011114
Kirkburton,53.61,-1.703,United Kingdom,E01011196
Linthwaite,53.6264,-1.8461,United Kingdom,E01011077
Marsden,53.6011,-1.9267,United Kingdom,E01011074
Leeds,53.7997,-1.5492,United Kingdom,E01033008
Morley,53.7492,-1.6023,United Kingdom,E01011533
Farnley,53.7876,-1.6159,United Kingdom,E01011735
Calverley,53.8266,-1.6908,United Kingdom,E01011590
Pudsey,53.797,-1.663,United Kingdom,E01011612
Guiseley,53.875,-1.706,United Kingdom,E01011267
Yeadon,53.869,-1.6880000000000002,United Kingdom,E01011274
Woodlesford,53.7567,-1.453,United Kingdom,E01011638
Kirkstall,53.816,-1.6019999999999999,United Kingdom,E01011477
Rothwell,53.7485,-1.4780000000000002,United Kingdom,E01011629
Wetherby,53.9276,-1.3839,United Kingdom,E01011705
Garforth,53.792,-1.3880000000000001,United Kingdom,E01011396
Adel,53.8489,-1.5849,United Kingdom,E01011380
Horsforth,53.8341,-1.6429,United Kingdom,E01011465
Seacroft,53.8222,-1.4599,United Kingdom,E01011661
Otley,53.905,-1.6869999999999998,United Kingdom,E01011572
Kippax,53.7669,-1.3705,United Kingdom,E01011304
Cross Gates,53.8063,-1.4506,United Kingdom,E01011408
Gildersome,53.75899999999999,-1.6322,United Kingdom,E01011519
Drighlington,53.7568,-1.6616,United Kingdom,E01011521
Boston Spa,53.903999999999996,-1.35,United Kingdom,E01011709
Harewood,53.9,-1.51,United Kingdom,E01011561
Bramhope,53.8829,-1.6095,United Kingdom,E01032504
Swillington,53.768,-1.4201,United Kingdom,E01011391
Collingham,53.903999999999996,-1.4139,United Kingdom,E01011696
Wakefield,53.68,-1.49,United Kingdom,E01011916
Castleford,53.716,-1.3559999999999999,United Kingdom,E01011763
Pontefract,53.691,-1.3119999999999998,United Kingdom,E01011837
Ossett,53.68,-1.58,United Kingdom,E01011830
Normanton,53.696999999999996,-1.416,United Kingdom,E01011822
Hemsworth,53.61,-1.35,United Kingdom,E01011790
Stanley,53.7145,-1.476,United Kingdom,E01011878
Featherstone,53.7,-1.37,United Kingdom,E01011775
Knottingley,53.705,-1.249,United Kingdom,E01011808
Horbury,53.6595,-1.5566,United Kingdom,E01011799
Crigglestone,53.644,-1.5226,United Kingdom,E01011929
High Ackworth,53.6408,-1.3364,United Kingdom,E01011770
South Elmsall,53.5959,-1.2726,United Kingdom,E01011860
Altofts,53.696999999999996,-1.416,United Kingdom,E01011822
Crofton,53.657,-1.4269999999999998,United Kingdom,E01011765
North Elmsall,53.608999999999995,-1.2819999999999998,United Kingdom,E01011855
Upton,53.62,-1.29,United Kingdom,E01011858
Ryhill,53.6168,-1.4021,United Kingdom,E01011784
Hartlepool,54.69,-1.21,United Kingdom,E01011974
Seaton Carew,54.6628,-1.1888,United Kingdom,E01011996
Marton,54.5406,-1.2124,United Kingdom,E01012051
Ormesby,54.5492,-1.1817,United Kingdom,E01012150
Nunthorpe,54.5287,-1.177,United Kingdom,E01012073
Stainton,54.5211,-1.2595,United Kingdom,E01032553
Middlesbrough,54.5767,-1.2355,United Kingdom,E01012068
Redcar,54.618,-1.069,United Kingdom,E01012100
Guisborough,54.535,-1.0563,United Kingdom,E01012118
Skelton,54.5619,-0.9874,United Kingdom,E01012165
Loftus,54.5569,-0.8919,United Kingdom,E01033473
Kirkleatham,54.5833,-1.0833,United Kingdom,E01012129
Eston,54.56,-1.1440000000000001,United Kingdom,E01012111
Saltburn-by-the-Sea,54.5828,-0.9732,United Kingdom,E01012159
Brotton,54.56800000000001,-0.937,United Kingdom,E01012099
Grangetown,54.58,-1.1440000000000001,United Kingdom,E01012114
Great Ayton,54.4957,-1.1292,United Kingdom,E01027599
Stockton-on-Tees,54.57,-1.32,United Kingdom,E01012254
Billingham,54.61,-1.27,United Kingdom,E01012214
Thornaby on Tees,54.5556,-1.3049,United Kingdom,E01012287
Yarm,54.505,-1.348,United Kingdom,E01012299
Darlington,54.527,-1.5526,United Kingdom,E01033484
Runcorn,53.341,-2.7289999999999996,United Kingdom,E01012431
Widnes,53.363,-2.728,United Kingdom,E01012367
Weston,53.413000000000004,-2.798,United Kingdom,E01006505
Warrington,53.3917,-2.5972,United Kingdom,E01033300
Great Sankey,53.3918,-2.6383,United Kingdom,E01012499
Culcheth,53.4517,-2.5218,United Kingdom,E01012474
Burtonwood,53.4302,-2.6614,United Kingdom,E01012470
Appleton,53.3508,-2.5441,United Kingdom,E01012448
Latchford,53.3796,-2.5645,United Kingdom,E01012507
Winwick,53.4306,-2.5976,United Kingdom,E01012468
Croft,53.437,-2.552,United Kingdom,E01012472
Blackburn,53.74800000000001,-2.4819999999999998,United Kingdom,E01012644
Darwen,53.698,-2.461,United Kingdom,E01012650
Blackpool,53.8142,-3.0503,United Kingdom,E01012736
Bispham,53.852,-3.0410000000000004,United Kingdom,E01012667
Kingston upon Hull,53.7444,-0.3325,United Kingdom,E01033109
Cottingham,53.7822,-0.4136,United Kingdom,E01012960
Sutton on Hull,53.7806,-0.3047,United Kingdom,E01012904
Bridlington,54.0819,-0.1923,United Kingdom,E01012948
Beverley,53.845,-0.4270000000000001,United Kingdom,E01013071
Goole,53.6992,-0.8692,United Kingdom,E01013000
Hessle,53.7239,-0.4319,United Kingdom,E01013014
Great Driffield,54.005,-0.43799999999999994,United Kingdom,E01012980
Hornsea,53.9108,-0.1676,United Kingdom,E01013051
Pocklington,53.9309,-0.7781,United Kingdom,E01013056
Willerby,53.7633,-0.4504,United Kingdom,E01013113
Hedon,53.7395,-0.1948,United Kingdom,E01013095
Market Weighton,53.8642,-0.6624,United Kingdom,E01013124
Withernsea,53.7285,0.0382,United Kingdom,E01013083
South Cave,53.769,-0.598,United Kingdom,E01012967
Howden,53.7441,-0.8634,United Kingdom,E01013015
North Ferriby,53.72,-0.5078,United Kingdom,E01013089
Swanland,53.7399,-0.4905,United Kingdom,E01013091
Stamford Bridge,53.989,-0.9125,United Kingdom,E01013061
Gilberdike,53.751999999999995,-0.7361,United Kingdom,E01013018
Thorngumbald,53.7208,-0.1715,United Kingdom,E01013101
Preston,53.7566,-0.1969,United Kingdom,E01013102
Holme upon Spalding Moor,53.8365,-0.7782,United Kingdom,E01013024
Grimsby,53.5595,-0.068,United Kingdom,E01013161
Cleethorpes,53.5533,-0.0215,United Kingdom,E01013152
Scartho,53.5399,-0.0926,United Kingdom,E01013192
Immingham,53.6139,-0.2183,United Kingdom,E01013178
Waltham,53.5165,-0.1021,United Kingdom,E01013213
Humberston,53.5281,-0.0249,United Kingdom,E01013169
Laceby,53.541000000000004,-0.168,United Kingdom,E01013226
Healing,53.5739,-0.16399999999999998,United Kingdom,E01013223
Scunthorpe,53.5809,-0.6502,United Kingdom,E01013314
Barton upon Humber,53.6833,-0.45,United Kingdom,E01013256
Bottesford,53.5521,-0.6714,United Kingdom,E01013265
Broughton,53.5638,-0.5465,United Kingdom,E01013276
Brigg,53.5529,-0.485,United Kingdom,E01013273
Winterton,53.6549,-0.5979,United Kingdom,E01013288
Crowle,53.6073,-0.8321,United Kingdom,E01013249
Haxey,53.4868,-0.8462,United Kingdom,E01013250
Epworth,53.525,-0.82,United Kingdom,E01013244
Messingham,53.5273,-0.6535,United Kingdom,E01013327
Barrow upon Humber,53.675,-0.3818,United Kingdom,E01013305
Belton,53.553000000000004,-0.8166,United Kingdom,E01013242
Burton upon Stather,53.6494,-0.6848,United Kingdom,E01013293
Kirton in Lindsey,53.4759,-0.5887,United Kingdom,E01013322
York,53.9583,-1.0803,United Kingdom,E01033070
Harrogate,53.9919,-1.5378,United Kingdom,E01027678
Scarborough,54.2773,-0.4017,United Kingdom,E01027854
Bridlington,54.0819,-0.1923,United Kingdom,E01012948
Beverley,53.845,-0.4270000000000001,United Kingdom,E01013071
Acomb,53.955,-1.126,United Kingdom,E01013445
Goole,53.6992,-0.8692,United Kingdom,E01013000
Northallerton,54.3378,-1.4285,United Kingdom,E01027608
Ripon,54.13800000000001,-1.524,United Kingdom,E01027706
Knaresborough,54.0084,-1.4669999999999999,United Kingdom,E01027669
Hessle,53.7239,-0.4319,United Kingdom,E01013014
Selby,53.7818,-1.0703,United Kingdom,E01027909
Skipton,53.961999999999996,-2.017,United Kingdom,E01027577
Clifton,53.9721,-1.0979,United Kingdom,E01013346
Whitby,54.4858,-0.6206,United Kingdom,E01027870
Great Driffield,54.005,-0.43799999999999994,United Kingdom,E01012980
Huntington,53.9926,-1.043,United Kingdom,E01013409
Hornsea,53.9108,-0.1676,United Kingdom,E01013051
Haxby,54.01600000000001,-1.075,United Kingdom,E01013370
Richmond,54.403,-1.7369999999999999,United Kingdom,E01027770
Pocklington,53.9309,-0.7781,United Kingdom,E01013056
Willerby,53.7633,-0.4504,United Kingdom,E01013113
Hedon,53.7395,-0.1948,United Kingdom,E01013095
Filey,54.2101,-0.2893,United Kingdom,E01027827
Pickering,54.2439,-0.7759999999999999,United Kingdom,E01027795
Sherburn in Elmet,53.7973,-1.2331,United Kingdom,E01027916
Market Weighton,53.8642,-0.6624,United Kingdom,E01013124
Withernsea,53.7285,0.0382,United Kingdom,E01013083
Strensall,54.0401,-1.0344,United Kingdom,E01013438
Tadcaster,53.8852,-1.262,United Kingdom,E01027918
Pannal,53.9609,-1.5362,United Kingdom,E01027698
Bilton,54.0099,-1.5359,United Kingdom,E01027638
Brayton,53.7682,-1.0907,United Kingdom,E01027880
Thirsk,54.2327,-1.3419999999999999,United Kingdom,E01027630
Malton,54.138999999999996,-0.792,United Kingdom,E01027785
South Cave,53.769,-0.598,United Kingdom,E01012967
Heslington,53.9448,-1.0434,United Kingdom,E01013398
Stokesley,54.4712,-1.1905,United Kingdom,E01027625
Easingwold,54.1198,-1.1897,United Kingdom,E01027594
Earby,53.913999999999994,-2.144,United Kingdom,E01025201
Seamer,54.2383,-0.441,United Kingdom,E01027859
Copmanthorpe,53.916000000000004,-1.133,United Kingdom,E01013423
Howden,53.7441,-0.8634,United Kingdom,E01013015
North Ferriby,53.72,-0.5078,United Kingdom,E01013089
Swanland,53.7399,-0.4905,United Kingdom,E01013091
Sutton-in-Craven,53.891999999999996,-1.993,United Kingdom,E01027583
Wigginton,54.0187,-1.0936,United Kingdom,E01013377
Stamford Bridge,53.989,-0.9125,United Kingdom,E01013061
Gilberdike,53.751999999999995,-0.7361,United Kingdom,E01013018
Boroughbridge,54.095,-1.3980000000000001,United Kingdom,E01027645
Thorngumbald,53.7208,-0.1715,United Kingdom,E01013101
Preston,53.7566,-0.1969,United Kingdom,E01013102
Bishopthorpe,53.9187,-1.1008,United Kingdom,E01013340
Holme upon Spalding Moor,53.8365,-0.7782,United Kingdom,E01013024
Bedale,54.288000000000004,-1.591,United Kingdom,E01027588
Catterick,54.376999999999995,-1.63,United Kingdom,E01027747
Hunmanby,54.1818,-0.3175,United Kingdom,E01027834
Kirkby Moorside,54.269,-0.93,United Kingdom,E01027784
High Bentham,54.118,-2.51,United Kingdom,E01027559
Fulford,53.938,-1.073,United Kingdom,E01013362
New Earswick,53.992,-1.0724,United Kingdom,E01013410
Settle,54.0721,-2.2819,United Kingdom,E01027572
Derby,52.9167,-1.4667,United Kingdom,E01033166
Ilkeston,52.971000000000004,-1.3090000000000002,United Kingdom,E01019674
Long Eaton,52.898,-1.271,United Kingdom,E01019682
Glossop,53.44300000000001,-1.949,United Kingdom,E01019739
Swadlincote,52.773999999999994,-1.557,United Kingdom,E01019877
Littleover,52.90600000000001,-1.505,United Kingdom,E01013546
Alfreton,53.097,-1.38,United Kingdom,E01019403
Buxton,53.25899999999999,-1.911,United Kingdom,E01019717
Belper,53.028999999999996,-1.475,United Kingdom,E01019409
Dronfield,53.3024,-1.4664,United Kingdom,E01019786
Ripley,53.05,-1.4069999999999998,United Kingdom,E01019461
Staveley,53.2694,-1.3484,United Kingdom,E01019565
Mickleover,52.901,-1.5519999999999998,United Kingdom,E01013563
Heanor,53.013999999999996,-1.354,United Kingdom,E01019440
Chellaston,52.8671,-1.4384,United Kingdom,E01013515
Mackworth,52.9277,-1.5373,United Kingdom,E01013549
Allestree,52.9519,-1.4856,United Kingdom,E01013461
Chaddesden,52.9301,-1.4383,United Kingdom,E01013505
Shirebrook,53.2048,-1.2197,United Kingdom,E01019510
Spondon,52.92,-1.401,United Kingdom,E01013592
New Mills,53.367,-2.0069999999999997,United Kingdom,E01019746
Bolsover,53.2304,-1.2875,United Kingdom,E01019490
Eckington,53.308,-1.3643,United Kingdom,E01019792
Matlock,53.14,-1.55,United Kingdom,E01019625
Killamarsh,53.3205,-1.3116,United Kingdom,E01019807
South Normanton,53.107,-1.3430000000000002,United Kingdom,E01019514
Clay Cross,53.1637,-1.4128,United Kingdom,E01019775
Brimington,53.258,-1.3905,United Kingdom,E01019534
Chapel en le Frith,53.321999999999996,-1.9169999999999998,United Kingdom,E01019719
Toton,52.907,-1.254,United Kingdom,E01028138
Newbold,53.2519,-1.4461,United Kingdom,E01019537
Clowne,53.276,-1.263,United Kingdom,E01019491
Ashbourne,53.01600000000001,-1.7309999999999999,United Kingdom,E01019596
Church Gresley,52.76,-1.5659999999999998,United Kingdom,E01019838
Wingerworth,53.2033,-1.4347,United Kingdom,E01019829
Whaley Bridge,53.3304,-1.9838,United Kingdom,E01019765
Hadfield,53.46,-1.97,United Kingdom,E01019733
Pinxton,53.0905,-1.3237,United Kingdom,E01019501
Swanwick,53.075,-1.3980000000000001,United Kingdom,E01019475
Duffield,52.989,-1.489,United Kingdom,E01019427
Wirksworth,53.082,-1.574,United Kingdom,E01019636
Heage,53.05,-1.4469999999999998,United Kingdom,E01019429
Melbourne,52.823,-1.429,United Kingdom,E01019854
West Hallam,52.97,-1.36,United Kingdom,E01019702
Shirland,53.121,-1.412,United Kingdom,E01019819
Blackwell,53.12,-1.354,United Kingdom,E01019481
Whittington,53.26,-1.43,United Kingdom,E01019542
Bakewell,53.213,-1.6759,United Kingdom,E01019601
Whitwell,53.285,-1.209,United Kingdom,E01019523
Hartshorne,52.788999999999994,-1.526,United Kingdom,E01019885
Tibshelf,53.143,-1.345,United Kingdom,E01019522
Old Brampton,53.2432,-1.4994,United Kingdom,E01019559
Kilburn,53.0056,-1.4254,United Kingdom,E01019446
Pilsley,53.155,-1.3659999999999999,United Kingdom,E01019813
Barlborough,53.287,-1.287,United Kingdom,E01019479
Draycott,52.8944,-1.3415,United Kingdom,E01019655
Heath,53.1982,-1.3353,United Kingdom,E01019799
Holmewood,53.1893,-1.3549,United Kingdom,E01019800
Etwall,52.88399999999999,-1.6019999999999999,United Kingdom,E01019840
Crich,53.083999999999996,-1.479,United Kingdom,E01019424
Chinley,53.339,-1.9409999999999998,United Kingdom,E01019711
Smalley,52.99800000000001,-1.3940000000000001,United Kingdom,E01019464
Hayfield,53.38,-1.94,United Kingdom,E01019734
Repton,52.838,-1.5490000000000002,United Kingdom,E01019869
Willington,52.854,-1.565,United Kingdom,E01019880
Birstall,52.6736,-1.12,United Kingdom,E01025681
Leicester,52.6333,-1.1333,United Kingdom,E01032867
Loughborough,52.7705,-1.2046,United Kingdom,E01025699
Hinckley,52.5413,-1.3725,United Kingdom,E01025852
Wigston Magna,52.5812,-1.093,United Kingdom,E01026001
Melton Mowbray,52.7661,-0.8859999999999999,United Kingdom,E01025899
Oadby,52.5987,-1.0763,United Kingdom,E01025978
Market Harborough,52.4775,-0.9206,United Kingdom,E01025795
Glen Parva,52.5867,-1.1617,United Kingdom,E01025660
Braunstone,52.61600000000001,-1.175,United Kingdom,E01025653
Burbage,52.5277,-1.3483,United Kingdom,E01025830
Shepshed,52.7711,-1.2951,United Kingdom,E01025747
Syston,52.7,-1.08,United Kingdom,E01025756
Ashby de la Zouch,52.746,-1.476,United Kingdom,E01025918
Broughton Astley,52.5278,-1.2275,United Kingdom,E01025772
Belgrave,52.6566,-1.1262,United Kingdom,E01013628
Aylestone,52.604,-1.1540000000000001,United Kingdom,E01013612
Evington,52.621,-1.072,United Kingdom,E01013670
Glenfield,52.6491,-1.2062,United Kingdom,E01025622
Barwell,52.5682,-1.3462,United Kingdom,E01025821
Whitwick,52.7403,-1.3556,United Kingdom,E01025968
Narborough,52.5727,-1.2023,United Kingdom,E01025642
Mountsorrel,52.7167,-1.15,United Kingdom,E01025729
Sileby,52.731,-1.1059999999999999,United Kingdom,E01025748
Sawley,52.882,-1.2990000000000002,United Kingdom,E01019699
Whetstone,52.5724,-1.1799,United Kingdom,E01025646
Anstey,52.6715,-1.1955,United Kingdom,E01025672
Castle Donnington,52.8444,-1.3377,United Kingdom,E01025928
Countesthorpe,52.555,-1.14,United Kingdom,E01025618
Enderby,52.5881,-1.2092,United Kingdom,E01025625
Blaby,52.5724,-1.1678,United Kingdom,E01025610
Barrow upon Soar,52.7517,-1.15,United Kingdom,E01025675
Ibstock,52.687,-1.401,United Kingdom,E01025943
Markfield,52.6878,-1.2775,United Kingdom,E01025868
Measham,52.7061,-1.508,United Kingdom,E01025949
Quorndon,52.7428,-1.17,United Kingdom,E01025733
Woodville,52.769,-1.5330000000000001,United Kingdom,E01019883
Kirby Muxloe,52.6351,-1.2341,United Kingdom,E01025639
Coalville,52.724,-1.369,United Kingdom,E01025930
Thringstone,52.7557,-1.3657,United Kingdom,E01025962
Hugglescote,52.71100000000001,-1.371,United Kingdom,E01025937
Rothley,52.708999999999996,-1.136,United Kingdom,E01025739
Stoney Stanton,52.548,-1.2788,United Kingdom,E01025665
Desford,52.625,-1.295,United Kingdom,E01025874
Kegworth,52.8369,-1.2836,United Kingdom,E01025945
Bottesford,52.9375,-0.802,United Kingdom,E01025885
Cosby,52.5517,-1.1933,United Kingdom,E01025614
Ashfordby,52.76,-0.96,United Kingdom,E01025883
Newbold Verdon,52.6296,-1.3421,United Kingdom,E01025872
Oakham,52.6705,-0.7333,United Kingdom,E01013799
Uppingham,52.59,-0.7222,United Kingdom,E01013807
Nottingham,52.95,-1.15,United Kingdom,E01033400
Mansfield,53.15,-1.2,United Kingdom,E01028284
Sutton in Ashfield,53.125,-1.261,United Kingdom,E01027976
West Bridgford,52.931999999999995,-1.127,United Kingdom,E01028398
Worksop,53.3042,-1.1244,United Kingdom,E01028062
Arnold,53.005,-1.127,United Kingdom,E01028209
Beeston,52.927,-1.215,United Kingdom,E01028073
Bulwell,53.00100000000001,-1.197,United Kingdom,E01013885
Clifton,52.903999999999996,-1.177,United Kingdom,E01013907
East Retford,53.3228,-0.9431,United Kingdom,E01028011
Kirkby in Ashfield,53.099,-1.245,United Kingdom,E01027952
Eastwood,53.018,-1.304,United Kingdom,E01028112
Basford,52.978,-1.169,United Kingdom,E01013839
Stapleford,52.928999999999995,-1.274,United Kingdom,E01028134
Chilwell,52.916000000000004,-1.235,United Kingdom,E01028096
Selston,53.07,-1.3,United Kingdom,E01027963
Warsop,53.2,-1.15,United Kingdom,E01028225
Ollerton,53.2,-1.02,United Kingdom,E01028341
Balderton,53.0549,-0.7727,United Kingdom,E01028288
Bingham,52.952,-0.953,United Kingdom,E01028358
Sandiacre,52.923,-1.291,United Kingdom,E01019693
Radcliffe on Trent,52.946999999999996,-1.04,United Kingdom,E01028414
Harworth,53.417,-1.075,United Kingdom,E01028024
Rainworth,53.1197,-1.1235,United Kingdom,E01028254
Hucknall under Huthwaite,53.125,-1.301,United Kingdom,E01027987
Southwell,53.078,-0.955,United Kingdom,E01028347
Bramcote,52.934,-1.242,United Kingdom,E01028087
Ruddington,52.893,-1.15,United Kingdom,E01028407
Cotgrave,52.913999999999994,-1.042,United Kingdom,E01028370
Calverton,53.037,-1.083,United Kingdom,E01028153
Carlton,52.967,-1.088,United Kingdom,E01028210
Gedling,52.975,-1.081,United Kingdom,E01028191
Kimberley,52.997,-1.255,United Kingdom,E01028102
East Leake,52.832,-1.177,United Kingdom,E01028389
Edwinstowe,53.16,-1.07,United Kingdom,E01028295
Blidworth,53.098,-1.1165,United Kingdom,E01028298
Wilford,52.926,-1.16,United Kingdom,E01013901
Edwalton,52.912,-1.112,United Kingdom,E01028372
Bawtry,53.4278,-1.0167,United Kingdom,E01007610
Clipstone,53.17,-1.1073,United Kingdom,E01028313
Burton Joyce,52.988,-1.036,United Kingdom,E01028149
Bilsthorpe,53.1333,-1.0333,United Kingdom,E01028297
Lowdham,53.00899999999999,-1.001,United Kingdom,E01028330
North Collingham,53.1478,-0.7592,United Kingdom,E01028315
Farnsfield,53.1028,-1.0361,United Kingdom,E01028328
Tuxford,53.231,-0.898,United Kingdom,E01028038
Telford,52.6766,-2.4469,United Kingdom,E01014191
Wellington,52.7001,-2.5157,United Kingdom,E01014145
Madeley,52.637,-2.448,United Kingdom,E01014162
Newport,52.7691,-2.3787,United Kingdom,E01014178
Oakengates,52.695,-2.451,United Kingdom,E01014153
Muxton,52.72,-2.421,United Kingdom,E01014170
Horsehay,52.65600000000001,-2.49,United Kingdom,E01014146
Wrockwardine,52.703,-2.556,United Kingdom,E01014203
Ironbridge,52.6277,-2.485,United Kingdom,E01028840
Stoke-on-Trent,53.0,-2.1833,United Kingdom,E01014339
Longton,52.9877,-2.1327,United Kingdom,E01014302
Milton,53.05,-2.142,United Kingdom,E01014265
Fenton,52.9977,-2.1578,United Kingdom,E01014274
Burslem,53.0426,-2.1879,United Kingdom,E01014249
Bath,51.38,-2.36,United Kingdom,E01014370
Keynsham,51.4135,-2.4968,United Kingdom,E01014403
Midsomer Norton,51.2842,-2.4817,United Kingdom,E01014423
Whitchurch,51.4064,-2.5594,United Kingdom,E01014447
Peasedown Saint John,51.315,-2.424,United Kingdom,E01014445
Radstock,51.293,-2.448,United Kingdom,E01014451
Paulton,51.3069,-2.5027,United Kingdom,E01014440
Saltford,51.4015,-2.4592,United Kingdom,E01014453
Batheaston,51.4065,-2.3112,United Kingdom,E01014373
Timsbury,51.3268,-2.4757,United Kingdom,E01014459
Bristol,51.45,-2.5833,United Kingdom,E01033353
Brislington,51.4316,-2.5439,United Kingdom,E01014527
Avonmouth,51.50100000000001,-2.699,United Kingdom,E01014499
Weston-super-Mare,51.346000000000004,-2.977,United Kingdom,E01014801
Portishead,51.483999999999995,-2.7626,United Kingdom,E01032681
Clevedon,51.438,-2.8539999999999996,United Kingdom,E01014750
Nailsea,51.43,-2.76,United Kingdom,E01014784
Felton,51.51,-2.574,United Kingdom,E01014906
Yatton,51.3855,-2.8256,United Kingdom,E01014859
Long Ashton,51.43,-2.65,United Kingdom,E01014850
Easton-in-Gordano,51.476000000000006,-2.7,United Kingdom,E01014767
Congresbury,51.3677,-2.8109,United Kingdom,E01014765
Banwell,51.327,-2.864,United Kingdom,E01014746
Locking,51.3309,-2.9108,United Kingdom,E01014769
Wrington,51.361000000000004,-2.763,United Kingdom,E01014853
Hutton,51.3219,-2.927,United Kingdom,E01014771
Kingswood,51.46,-2.505,United Kingdom,E01015007
Yate,51.5402,-2.411,United Kingdom,E01015017
Stoke Gifford,51.516999999999996,-2.548,United Kingdom,E01014979
Thornbury,51.6094,-2.5249,United Kingdom,E01014987
Frampton Cotterell,51.54,-2.48,United Kingdom,E01014913
Chipping Sodbury,51.538000000000004,-2.394,United Kingdom,E01014886
Almondsbury,51.5567,-2.5725,United Kingdom,E01014948
Siston,51.4746,-2.4501,United Kingdom,E01033338
Pilning,51.56399999999999,-2.6417,United Kingdom,E01014953
Bitton,51.4248,-2.46,United Kingdom,E01014865
Westerleigh,51.51,-2.43,United Kingdom,E01014896
Alveston,51.589,-2.533,United Kingdom,E01014863
Pucklechurch,51.486999999999995,-2.4353,United Kingdom,E01014867
Charfield,51.6261,-2.4058,United Kingdom,E01014885
Plymouth,50.3714,-4.1422,United Kingdom,E01015152
Plympton,50.386,-4.051,United Kingdom,E01015114
Plymstock,50.3569,-4.09,United Kingdom,E01015140
Saint Budeaux,50.4033,-4.1856,United Kingdom,E01015144
Egg Buckland,50.4006,-4.1136,United Kingdom,E01015067
Torquay,50.47,-3.53,United Kingdom,E01015217
Swindon,51.56,-1.78,United Kingdom,E01032714
Stratton Saint Margaret,51.58600000000001,-1.7619999999999998,United Kingdom,E01015558
Blunsdon Saint Andrew,51.61,-1.79,United Kingdom,E01015472
Highworth,51.631,-1.712,United Kingdom,E01015519
Wroughton,51.525,-1.7919999999999998,United Kingdom,E01015584
Chisledon,51.51600000000001,-1.7309999999999999,United Kingdom,E01015588
Luton,51.8783,-0.4147,United Kingdom,E01015791
Leagrave,51.903,-0.466,United Kingdom,E01015751
Stopsley,51.898999999999994,-0.396,United Kingdom,E01015796
Sundon,51.92,-0.47,United Kingdom,E01015803
Leigh-on-Sea,51.5425,0.6535,United Kingdom,E01015848
Shoeburyness,51.5316,0.7978,United Kingdom,E01015876
Great Wakering,51.5516,0.8165,United Kingdom,E01021923
Grays,51.475,0.33,United Kingdom,E01015952
Stanford le Hope,51.513999999999996,0.4244,United Kingdom,E01015989
South Ockendon,51.5207,0.2956,United Kingdom,E01015975
Tilbury,51.4606,0.3582,United Kingdom,E01016006
Aveley,51.5018,0.2534,United Kingdom,E01015923
West Thurrock,51.4836,0.282,United Kingdom,E01016011
Orsett,51.51,0.37,United Kingdom,E01015977
Gillingham,51.385,0.55,United Kingdom,E01016041
Chatham,51.37,0.52,United Kingdom,E01016125
Rochester,51.375,0.5,United Kingdom,E01016115
Strood,51.393,0.478,United Kingdom,E01016151
Rainham,51.36,0.61,United Kingdom,E01016089
Cuxton,51.375,0.45,United Kingdom,E01016028
Bracknell,51.416000000000004,-0.7490000000000001,United Kingdom,E01016249
Winkfield,51.4318,-0.7096,United Kingdom,E01016253
Warfield,51.442,-0.737,United Kingdom,E01016245
Binfield,51.431999999999995,-0.792,United Kingdom,E01016187
Crowthorne,51.37,-0.792,United Kingdom,E01016208
Newbury,51.401,-1.3230000000000002,United Kingdom,E01016347
Thatcham,51.405,-1.264,United Kingdom,E01016331
Burghfield,51.411,-1.042,United Kingdom,E01016269
Hungerford,51.413999999999994,-1.515,United Kingdom,E01016296
Lambourn,51.50899999999999,-1.531,United Kingdom,E01016306
Cold Ash,51.424,-1.264,United Kingdom,E01016284
Stratfield Mortimer,51.37300000000001,-1.037,United Kingdom,E01016308
Pangbourne,51.4839,-1.0869,United Kingdom,E01016313
Chieveley,51.46100000000001,-1.319,United Kingdom,E01016277
Theale,51.437,-1.077,United Kingdom,E01016344
Speen,51.4098,-1.3417,United Kingdom,E01016325
Kintbury,51.398999999999994,-1.449,United Kingdom,E01016301
Reading,51.4542,-0.9731,United Kingdom,E01033420
Caversham,51.467,-0.973,United Kingdom,E01016362
Tilehurst,51.4579,-1.0406,United Kingdom,E01016431
Slough,51.51,-0.59,United Kingdom,E01016512
Colnbrook,51.4835,-0.5221,United Kingdom,E01016481
Maidenhead,51.5217,-0.7177,United Kingdom,E01032734
Windsor,51.4791,-0.6095,United Kingdom,E01016544
Ascot,51.4084,-0.6707,United Kingdom,E01016609
Sunninghill,51.405,-0.6559999999999999,United Kingdom,E01016606
Datchet,51.4841,-0.5762,United Kingdom,E01016565
Sunningdale,51.398,-0.626,United Kingdom,E01016605
Old Windsor,51.46,-0.586,United Kingdom,E01016587
Bray,51.507,-0.7,United Kingdom,E01016539
Wraysbury,51.458,-0.552,United Kingdom,E01016575
White Waltham,51.49,-0.769,United Kingdom,E01016578
Wokingham,51.41,-0.84,United Kingdom,E01016626
Woodley,51.453,-0.902,United Kingdom,E01016616
Earley,51.433,-0.9329999999999999,United Kingdom,E01016653
Shinfield,51.408,-0.9470000000000001,United Kingdom,E01032758
Twyford,51.477,-0.867,United Kingdom,E01016692
Barkham,51.402,-0.8759999999999999,United Kingdom,E01016612
Milton Keynes,52.04,-0.76,United Kingdom,E01033499
Bletchley,51.994,-0.732,United Kingdom,E01016714
Shenley Brook End,52.00899999999999,-0.789,United Kingdom,E01016753
Great Linford,52.06800000000001,-0.7637,United Kingdom,E01016809
Newport Pagnell,52.086999999999996,-0.722,United Kingdom,E01016794
Shenley Church End,52.022,-0.7879999999999999,United Kingdom,E01016781
Wolverton,52.0626,-0.8102,United Kingdom,E01016837
Bradwell,52.05,-0.787,United Kingdom,E01016719
Stony Stratford,52.0567,-0.8526,United Kingdom,E01016818
Olney,52.1529,-0.7015,United Kingdom,E01016796
Broughton,52.05,-0.6940000000000001,United Kingdom,E01033508
Brighton,50.8429,-0.1313,United Kingdom,E01016901
Hove,50.8352,-0.1758,United Kingdom,E01016872
Patcham,50.864,-0.15,United Kingdom,E01016923
Rottingdean,50.815,-0.065,United Kingdom,E01016962
Portsmouth,50.8058,-1.0872,United Kingdom,E01017038
Cosham,50.8424,-1.0659999999999998,United Kingdom,E01017055
Hilsea,50.83,-1.07,United Kingdom,E01017092
Southampton,50.9,-1.4,United Kingdom,E01032751
Ryde,50.7271,-1.1618,United Kingdom,E01017340
Newport,50.701,-1.2883,United Kingdom,E01017326
Sandown,50.6551,-1.1541,United Kingdom,E01017348
Cowes,50.7595,-1.3002,United Kingdom,E01017303
Shanklin,50.631,-1.1734,United Kingdom,E01017356
East Cowes,50.757,-1.2865,United Kingdom,E01017309
Ventnor,50.5976,-1.2084,United Kingdom,E01017363
Freshwater,50.6826,-1.5249,United Kingdom,E01017315
Bembridge,50.6897,-1.0889,United Kingdom,E01017284
Haven Street,50.7092,-1.2089,United Kingdom,E01017286
Carisbrooke,50.6917,-1.3172,United Kingdom,E01017293
Wootton,50.7263,-1.2321,United Kingdom,E01017367
Totland,50.6849,-1.5366,United Kingdom,E01017362
Leighton Buzzard,51.9165,-0.6617,United Kingdom,E01017555
Dunstable,51.886,-0.521,United Kingdom,E01017570
Linslade,51.9243,-0.6774,United Kingdom,E01017590
Houghton Regis,51.9039,-0.5247,United Kingdom,E01017617
Biggleswade,52.0855,-0.2557,United Kingdom,E01017383
Ampthill,52.0263,-0.4906,United Kingdom,E01017372
Flitwick,52.0038,-0.4966,United Kingdom,E01017407
Sandy,52.131,-0.297,United Kingdom,E01017434
Arlesey,52.007,-0.2654,United Kingdom,E01017378
Barton-le-Clay,51.9669,-0.4241,United Kingdom,E01017559
Shefford,52.037,-0.332,United Kingdom,E01017438
Cranfield,52.0699,-0.6081,United Kingdom,E01017397
Potton,52.1271,-0.2152,United Kingdom,E01017429
Toddington,51.9496,-0.5323,United Kingdom,E01017620
Marston Moretaine,52.0627,-0.5478,United Kingdom,E01017418
Caddington,51.8631,-0.4568,United Kingdom,E01017563
Maulden,52.03,-0.47,United Kingdom,E01017420
Langford,52.0529,-0.2741,United Kingdom,E01017414
Clifton,52.0398,-0.3017,United Kingdom,E01017392
Bedford,52.135,-0.47,United Kingdom,E01017466
Leighton Buzzard,51.9165,-0.6617,United Kingdom,E01017555
Dunstable,51.886,-0.521,United Kingdom,E01017570
Linslade,51.9243,-0.6774,United Kingdom,E01017590
Kempston,52.114,-0.4970000000000001,United Kingdom,E01017505
Houghton Regis,51.9039,-0.5247,United Kingdom,E01017617
Biggleswade,52.0855,-0.2557,United Kingdom,E01017383
Ampthill,52.0263,-0.4906,United Kingdom,E01017372
Flitwick,52.0038,-0.4966,United Kingdom,E01017407
Sandy,52.131,-0.297,United Kingdom,E01017434
Arlesey,52.007,-0.2654,United Kingdom,E01017378
Barton-le-Clay,51.9669,-0.4241,United Kingdom,E01017559
Bromham,52.1454,-0.5298,United Kingdom,E01017459
Shefford,52.037,-0.332,United Kingdom,E01017438
Cranfield,52.0699,-0.6081,United Kingdom,E01017397
Potton,52.1271,-0.2152,United Kingdom,E01017429
Toddington,51.9496,-0.5323,United Kingdom,E01017620
Marston Moretaine,52.0627,-0.5478,United Kingdom,E01017418
Wootton,52.0987,-0.5319,United Kingdom,E01017554
Caddington,51.8631,-0.4568,United Kingdom,E01017563
Clapham,52.1649,-0.502,United Kingdom,E01017480
Wilstead,52.0666,-0.4333,United Kingdom,E01017549
Maulden,52.03,-0.47,United Kingdom,E01017420
Langford,52.0529,-0.2741,United Kingdom,E01017414
Clifton,52.0398,-0.3017,United Kingdom,E01017392
Elstow,52.1069,-0.4648,United Kingdom,E01017550
Biddenham,52.1406,-0.5051,United Kingdom,E01017460
Wisbech,52.663999999999994,0.16,United Kingdom,E01033112
Saint Neots,52.228,-0.27,United Kingdom,E01018187
Huntingdon,52.3364,-0.1717,United Kingdom,E01018143
March,52.551,0.08800000000000001,United Kingdom,E01018077
Ely,52.3981,0.2622,United Kingdom,E01018025
Saint Ives,52.3344,-0.0761,United Kingdom,E01018164
Whittlesey,52.558,-0.13,United Kingdom,E01018100
Soham,52.3338,0.3361,United Kingdom,E01018052
Chatteris,52.456,0.055,United Kingdom,E01018105
Yaxley,52.52,-0.26,United Kingdom,E01018214
Eaton Socon,52.22,-0.29,United Kingdom,E01018179
Cherry Hinton,52.1849,0.17600000000000002,United Kingdom,E01017959
Littleport,52.4568,0.3046,United Kingdom,E01018042
Ramsey,52.45,-0.12,United Kingdom,E01018160
Trumpington,52.174,0.109,United Kingdom,E01018002
Sawston,52.1247,0.1731,United Kingdom,E01018281
Godmanchester,52.3176,-0.1725,United Kingdom,E01018134
Sawtry,52.44,-0.28,United Kingdom,E01018195
Burwell,52.275,0.327,United Kingdom,E01018014
Cottenham,52.2865,0.1244,United Kingdom,E01018234
Waterbeach,52.2664,0.1908,United Kingdom,E01018301
Brampton,52.3194,-0.2335,United Kingdom,E01018116
Milton,52.2435,0.1615,United Kingdom,E01018273
Fulbourn,52.184,0.2272,United Kingdom,E01018244
Girton,52.233000000000004,0.083,United Kingdom,E01018250
Linton,52.0991,0.27699999999999997,United Kingdom,E01018264
Melbourn,52.082,0.0205,United Kingdom,E01018269
Shelford,52.1503,0.1357,United Kingdom,E01018293
Bar Hill,52.2539,0.0228,United Kingdom,E01018221
Willingham,52.32,0.07,United Kingdom,E01018304
Warboys,52.4,-0.07,United Kingdom,E01018210
Elm,52.63,0.18,United Kingdom,E01018067
Somersham,52.3823,0.0006,United Kingdom,E01018197
Wisbech Saint Mary,52.63,0.1,United Kingdom,E01018092
Haddenham,52.358000000000004,0.149,United Kingdom,E01018037
Gamlingay,52.1579,-0.1946,United Kingdom,E01018246
Little Paxton,52.25,-0.25,United Kingdom,E01018155
Papworth Everard,52.2547,-0.1189,United Kingdom,E01018276
Fen Stanton,52.3,-0.07,United Kingdom,E01018130
Over,52.31399999999999,0.016,United Kingdom,E01018305
Buckden,52.28,-0.25,United Kingdom,E01018119
Fordham,52.32,0.38,United Kingdom,E01018034
Hardwick,52.2133,0.0119,United Kingdom,E01018251
Teversham,52.2,0.19,United Kingdom,E01018286
Long Stanton,52.278999999999996,0.0478,United Kingdom,E01018266
Hemingford Grey,52.31800000000001,-0.10400000000000001,United Kingdom,E01018203
Holywell,52.318999999999996,-0.034,United Kingdom,E01018121
Chester,53.19,-2.89,United Kingdom,E01018326
Ellesmere Port,53.278999999999996,-2.897,United Kingdom,E01018520
Winsford,53.193999999999996,-2.52,United Kingdom,E01018731
Northwich,53.25899999999999,-2.5180000000000002,United Kingdom,E01018712
Neston,53.288999999999994,-3.074,United Kingdom,E01018536
Frodsham,53.295,-2.725,United Kingdom,E01018688
Weaverham,53.262,-2.577,United Kingdom,E01018729
Hartford,53.245,-2.549,United Kingdom,E01018693
Cuddington,53.24,-2.6,United Kingdom,E01018676
Helsby,53.273,-2.77,United Kingdom,E01018697
Willaston,53.292,-3.005,United Kingdom,E01018571
Parkgate,53.29600000000001,-3.085,United Kingdom,E01018537
Elton,53.2766,-2.8168,United Kingdom,E01018338
Saughall,53.2234,-2.9593,United Kingdom,E01018366
Sealand,53.211999999999996,-2.97,United Kingdom,E01018366
Davenham,53.2358,-2.5111,United Kingdom,E01018683
Tarvin,53.1949,-2.7668,United Kingdom,E01018368
Tarporley,53.1602,-2.6694,United Kingdom,E01018723
Kelsall,53.207,-2.7119999999999997,United Kingdom,E01018350
Crewe,53.099,-2.44,United Kingdom,E01018464
Macclesfield,53.2581,-2.1274,United Kingdom,E01018624
Congleton,53.162,-2.217,United Kingdom,E01018398
Wilmslow,53.325,-2.239,United Kingdom,E01018601
Sandbach,53.146,-2.367,United Kingdom,E01018437
Nantwich,53.067,-2.522,United Kingdom,E01018504
Poynton,53.3492,-2.1222,United Kingdom,E01018655
Middlewich,53.192,-2.443,United Kingdom,E01018420
Knutsford,53.3025,-2.3708,United Kingdom,E01018610
Lymm,53.3834,-2.475,United Kingdom,E01012516
Alsager,53.0961,-2.3048,United Kingdom,E01018388
Wistaston,53.0821,-2.4747,United Kingdom,E01018490
Bollington,53.298,-2.093,United Kingdom,E01018576
Handforth,53.35,-2.2159999999999997,United Kingdom,E01018595
Holmes Chapel,53.20399999999999,-2.353,United Kingdom,E01018415
Alderley Edge,53.303000000000004,-2.2359999999999998,United Kingdom,E01018574
Prestbury,53.2928,-2.1452,United Kingdom,E01018666
Willaston,53.082,-2.479,United Kingdom,E01018490
Mobberley,53.3134,-2.3263,United Kingdom,E01018650
Rainow,53.2802,-2.0727,United Kingdom,E01018669
Falmouth,50.15,-5.07,United Kingdom,E01018804
Camborne,50.213,-5.3,United Kingdom,E01018878
Penzance,50.119,-5.537000000000001,United Kingdom,E01018999
Newquay,50.412,-5.0757,United Kingdom,E01019020
Saint Austell,50.3386,-4.7922,United Kingdom,E01019047
Truro,50.26,-5.051,United Kingdom,E01018809
Saltash,50.408,-4.212,United Kingdom,E01018793
Bodmin,50.466,-4.718,United Kingdom,E01018933
Redruth,50.233000000000004,-5.224,United Kingdom,E01018913
Saint Ives,50.21100000000001,-5.48,United Kingdom,E01019012
Helston,50.1,-5.27,United Kingdom,E01018885
Bude,50.824,-4.542,United Kingdom,E01018938
Launceston,50.635,-4.354,United Kingdom,E01018950
Hayle,50.183,-5.416,United Kingdom,E01018984
Torpoint,50.37600000000001,-4.205,United Kingdom,E01018798
Wadebridge,50.516999999999996,-4.835,United Kingdom,E01018972
Saint Agnes,50.312,-5.204,United Kingdom,E01018851
Penryn,50.169,-5.107,United Kingdom,E01018836
Saint Blazey,50.361000000000004,-4.716,United Kingdom,E01019057
Callington,50.503,-4.316,United Kingdom,E01018751
Perranzabuloe,50.326,-5.132999999999999,United Kingdom,E01018843
Illogan,50.25,-5.268,United Kingdom,E01018893
Looe,50.354,-4.454,United Kingdom,E01018776
Saint Columb Major,50.431999999999995,-4.94,United Kingdom,E01019062
Newlyn,50.101000000000006,-5.553,United Kingdom,E01019004
Bugle,50.396,-4.793,United Kingdom,E01019076
Altarnun,50.603,-4.511,United Kingdom,E01018925
Feock,50.206,-5.05,United Kingdom,E01018816
Dobwalls,50.4577,-4.5158,United Kingdom,E01018758
Perranporth,50.3437,-5.1546,United Kingdom,E01018842
Porthleven,50.083999999999996,-5.315,United Kingdom,E01018906
Gwithian,50.2214,-5.3865,United Kingdom,E01018980
Breage,50.108000000000004,-5.332000000000002,United Kingdom,E01018861
Padstow,50.538000000000004,-4.938,United Kingdom,E01018956
Camelford,50.617,-4.683,United Kingdom,E01033292
Lostwithiel,50.4074,-4.6696,United Kingdom,E01019035
Saint Dennis,50.383,-4.883,United Kingdom,E01019055
Wendron,50.13399999999999,-5.247999999999998,United Kingdom,E01018883
Crowan,50.163000000000004,-5.294,United Kingdom,E01018863
Delabole,50.622,-4.7330000000000005,United Kingdom,E01018941
Weymouth,50.613,-2.457,United Kingdom,E01020554
Christchurch,50.73,-1.78,United Kingdom,E01020367
Fern Down,50.81,-1.9,United Kingdom,E01020375
Dorchester,50.7154,-2.4367,United Kingdom,E01032644
Wimborne Minster,50.803999999999995,-1.9780000000000002,United Kingdom,E01020426
Verwood,50.8815,-1.8785,United Kingdom,E01020414
Bridport,50.7336,-2.7584,United Kingdom,E01020503
Gillingham,51.0375,-2.2748,United Kingdom,E01020443
Blandford Forum,50.856,-2.1648,United Kingdom,E01020438
Corfe Mullen,50.7701,-2.0175,United Kingdom,E01020382
Swanage,50.608000000000004,-1.96,United Kingdom,E01020482
Sherborne,50.9469,-2.5171,United Kingdom,E01020546
Shaftesbury,51.0059,-2.1969,United Kingdom,E01020454
Chickerell,50.623999999999995,-2.5047,United Kingdom,E01020513
Wareham,50.68600000000001,-2.1099,United Kingdom,E01020488
Wyke Regis,50.592,-2.475,United Kingdom,E01020586
Wool,50.6789,-2.2189,United Kingdom,E01020492
Sturminster Newton,50.9261,-2.3051,United Kingdom,E01020458
Highcliffe,50.7414,-1.6959,United Kingdom,E01020349
Lyme Regis,50.725,-2.94,United Kingdom,E01020532
West Parley,50.786,-1.886,United Kingdom,E01020402
Lytchett Matravers,50.7582,-2.0791,United Kingdom,E01020470
Alderholt,50.9133,-1.8317,United Kingdom,E01020374
Beaminster,50.809,-2.7391,United Kingdom,E01020496
Charminster,50.7327,-2.4546,United Kingdom,E01032643
Stalbridge,50.9594,-2.3784,United Kingdom,E01020434
Rotherham,53.43,-1.357,United Kingdom,E01007714
Rawmarsh,53.4636,-1.3439,United Kingdom,E01007782
Maltby,53.426,-1.21,United Kingdom,E01007762
Swinton,53.4877,-1.3149,United Kingdom,E01007796
Swallownest,53.3623,-1.3251,United Kingdom,E01007671
Wath upon Dearne,53.5022,-1.3402,United Kingdom,E01007821
Dinnington,53.3667,-1.2,United Kingdom,E01007791
Bramley,53.4253,-1.2648,United Kingdom,E01007684
Wickersley,53.4199,-1.2792,United Kingdom,E01007686
Whiston,53.4,-1.32,United Kingdom,E01007812
Thrybergh,53.45,-1.3,United Kingdom,E01007719
Treeton,53.3845,-1.3513,United Kingdom,E01007701
West Melton,53.5035,-1.3618,United Kingdom,E01007697
Kilnhurst,53.4703,-1.3057,United Kingdom,E01007772
Elsecar,53.496,-1.412,United Kingdom,E01007394
Cheltenham,51.9,-2.0667,United Kingdom,E01022102
Kingswood,51.46,-2.505,United Kingdom,E01015007
Stroud,51.744,-2.215,United Kingdom,E01022411
Yate,51.5402,-2.411,United Kingdom,E01015017
Tewkesbury,51.99,-2.16,United Kingdom,E01022458
Cirencester,51.718999999999994,-1.9680000000000002,United Kingdom,E01022194
Quedgeley,51.825,-2.28,United Kingdom,E01022335
Stoke Gifford,51.516999999999996,-2.548,United Kingdom,E01014979
Thornbury,51.6094,-2.5249,United Kingdom,E01014987
Churchdown,51.88,-2.17,United Kingdom,E01022427
Bishops Cleeve,51.946999999999996,-2.061,United Kingdom,E01022436
Charlton Kings,51.8877,-2.0413,United Kingdom,E01022112
Hucclecote,51.85,-2.18,United Kingdom,E01022304
Lydney,51.7286,-2.5285,United Kingdom,E01022256
Cinderford,51.8225,-2.4989,United Kingdom,E01022236
Coleford,51.791000000000004,-2.6162,United Kingdom,E01022245
Cam,51.7,-2.3667,United Kingdom,E01022359
Stonehouse,51.7478,-2.2838,United Kingdom,E01022402
Brockworth,51.85,-2.15,United Kingdom,E01022424
Dursley,51.6811,-2.3543,United Kingdom,E01022372
Frampton Cotterell,51.54,-2.48,United Kingdom,E01014913
Chalford,51.7238,-2.1491,United Kingdom,E01022367
Nailsworth,51.6954,-2.2234,United Kingdom,E01022386
Wotton-under-Edge,51.63800000000001,-2.349,United Kingdom,E01022417
Tidenham,51.6605,-2.6435,United Kingdom,E01022274
Tetbury,51.636,-2.158,United Kingdom,E01022220
Newent,51.9302,-2.4048,United Kingdom,E01022262
Chipping Sodbury,51.538000000000004,-2.394,United Kingdom,E01014886
Almondsbury,51.5567,-2.5725,United Kingdom,E01014948
Siston,51.4746,-2.4501,United Kingdom,E01033338
Winchcomb,51.955,-1.965,United Kingdom,E01022464
Hardwicke,51.8139,-2.2847,United Kingdom,E01022338
Pilning,51.56399999999999,-2.6417,United Kingdom,E01014953
Bitton,51.4248,-2.46,United Kingdom,E01014865
Moreton in Marsh,51.988,-1.7009999999999998,United Kingdom,E01022211
South Cerney,51.67100000000001,-1.932,United Kingdom,E01022223
Westerleigh,51.51,-2.43,United Kingdom,E01014896
Bourton on the Water,51.886,-1.7590000000000001,United Kingdom,E01022180
Fairford,51.708,-1.785,United Kingdom,E01022203
Bream,51.7498,-2.574,United Kingdom,E01022231
Drybrook,51.8542,-2.5496,United Kingdom,E01022251
Painswick,51.786,-2.194,United Kingdom,E01022390
Alveston,51.589,-2.533,United Kingdom,E01014863
Pucklechurch,51.486999999999995,-2.4353,United Kingdom,E01014867
Minchinhampton,51.7058,-2.186,United Kingdom,E01022383
Lechlade,51.699,-1.692,United Kingdom,E01022210
Mitcheldean,51.8646,-2.4904,United Kingdom,E01022259
Charfield,51.6261,-2.4058,United Kingdom,E01014885
Hartlepool,54.69,-1.21,United Kingdom,E01011974
Seaton Carew,54.6628,-1.1888,United Kingdom,E01011996
Lincoln,53.2344,-0.5386,United Kingdom,E01026148
Grimsby,53.5595,-0.068,United Kingdom,E01013161
Scunthorpe,53.5809,-0.6502,United Kingdom,E01013314
Grantham,52.918,-0.638,United Kingdom,E01026353
Cleethorpes,53.5533,-0.0215,United Kingdom,E01013152
Boston,52.974,-0.0214,United Kingdom,E01026025
Spalding,52.7858,-0.1529,United Kingdom,E01026266
Gainsborough,53.4016,-0.7732,United Kingdom,E01026384
Stamford,52.65600000000001,-0.484,United Kingdom,E01026288
Skegness,53.14,0.34,United Kingdom,E01026093
Sleaford,52.996,-0.413,United Kingdom,E01026227
Louth,53.3669,-0.0061,United Kingdom,E01032986
Bourne,52.7684,-0.3775,United Kingdom,E01026299
North Hykeham,53.1819,-0.5849,United Kingdom,E01026219
Mablethorpe,53.3409,0.261,United Kingdom,E01026073
Barton upon Humber,53.6833,-0.45,United Kingdom,E01013256
Bottesford,53.5521,-0.6714,United Kingdom,E01013265
Holbeach,52.8037,0.0154,United Kingdom,E01026250
Scartho,53.5399,-0.0926,United Kingdom,E01013192
Immingham,53.6139,-0.2183,United Kingdom,E01013178
Boultham,53.214,-0.5561,United Kingdom,E01026135
Quarrington,52.986999999999995,-0.4304,United Kingdom,E01026234
Deeping Saint James,52.6717,-0.2995,United Kingdom,E01026307
Fishtoft,52.9617,0.0259,United Kingdom,E01026014
Horncastle,53.208,-0.114,United Kingdom,E01026067
Waltham,53.5165,-0.1021,United Kingdom,E01013213
Waddington,53.1664,-0.5389,United Kingdom,E01026185
Market Deeping,52.6776,-0.3173,United Kingdom,E01026335
Broughton,53.5638,-0.5465,United Kingdom,E01013276
Humberston,53.5281,-0.0249,United Kingdom,E01013169
Brigg,53.5529,-0.485,United Kingdom,E01013273
Kirton,52.9278,-0.0598,United Kingdom,E01026018
Ruskington,53.0444,-0.3875,United Kingdom,E01026222
Pinchbeck,52.8147,-0.1605,United Kingdom,E01026260
Winterton,53.6549,-0.5979,United Kingdom,E01013288
Crowle,53.6073,-0.8321,United Kingdom,E01013249
Long Sutton,52.7856,0.12,United Kingdom,E01026257
Haxey,53.4868,-0.8462,United Kingdom,E01013250
Sutton Bridge,52.771,0.1874,United Kingdom,E01026277
Welton,53.3029,-0.4759,United Kingdom,E01026413
Crowland,52.6768,-0.1688,United Kingdom,E01026240
Branston,53.1944,-0.4717,United Kingdom,E01026189
Woodhall Spa,53.1515,-0.2183,United Kingdom,E01026118
Saxilby,53.2714,-0.6559999999999999,United Kingdom,E01026396
Market Rasen,53.3871,-0.3355,United Kingdom,E01026389
Coningsby,53.1051,-0.1752,United Kingdom,E01026054
Wyberton,52.95399999999999,-0.0412,United Kingdom,E01026031
Epworth,53.525,-0.82,United Kingdom,E01013244
Messingham,53.5273,-0.6535,United Kingdom,E01013327
Holton le Clay,53.5055,-0.0585,United Kingdom,E01026063
Metheringham,53.1391,-0.4034,United Kingdom,E01026213
Whaplode,52.8002,-0.037000000000000005,United Kingdom,E01026251
Moulton,52.798,-0.0629,United Kingdom,E01026281
Moulton Chapel,52.7463,-0.0841,United Kingdom,E01026282
Skellingthorpe,53.2364,-0.6165,United Kingdom,E01026225
Alford,53.26,0.18,United Kingdom,E01026043
Nettleham,53.2662,-0.4877,United Kingdom,E01026395
Chapel Saint Leonards,53.223,0.3365,United Kingdom,E01026048
Washingborough,53.2233,-0.4744,United Kingdom,E01026204
Heckington,52.982,-0.304,United Kingdom,E01026202
Leverington,52.6822,0.1359,United Kingdom,E01018094
Laceby,53.541000000000004,-0.168,United Kingdom,E01013226
Scotter,53.498999999999995,-0.6663,United Kingdom,E01026402
Spilsby,53.1727,0.0931,United Kingdom,E01026101
Barrow upon Humber,53.675,-0.3818,United Kingdom,E01013305
Belton,53.553000000000004,-0.8166,United Kingdom,E01013242
Gosberton,52.85,-0.15,United Kingdom,E01026247
Healing,53.5739,-0.16399999999999998,United Kingdom,E01013223
Heighington,53.211999999999996,-0.4574,United Kingdom,E01026206
Tattershall,53.104,-0.1906,United Kingdom,E01026054
Cranwell,53.0367,-0.4619,United Kingdom,E01026209
Donington,52.903999999999996,-0.1982,United Kingdom,E01026242
Burton upon Stather,53.6494,-0.6848,United Kingdom,E01013293
Kirton in Lindsey,53.4759,-0.5887,United Kingdom,E01013322
Caistor,53.494,-0.322,United Kingdom,E01026368
Kettering,52.3931,-0.7229,United Kingdom,E01027113
Corby,52.4914,-0.6965,United Kingdom,E01026949
Wellingborough,52.2939,-0.6964,United Kingdom,E01027317
Rushden,52.288000000000004,-0.601,United Kingdom,E01027067
Daventry,52.26,-1.16,United Kingdom,E01026987
Brackley,52.032,-1.147,United Kingdom,E01027267
Wootton,52.2007,-0.8857,United Kingdom,E01027204
Desborough,52.4398,-0.8172,United Kingdom,E01027108
Towcester,52.13,-0.99,United Kingdom,E01027299
Irthlingborough,52.324,-0.614,United Kingdom,E01027041
Raunds,52.345,-0.537,United Kingdom,E01027051
Great Billing,52.2577,-0.8222,United Kingdom,E01027141
Rothwell,52.4254,-0.8029,United Kingdom,E01027126
Burton Latimer,52.365,-0.6779999999999999,United Kingdom,E01027091
Higham Ferrers,52.3057,-0.5844,United Kingdom,E01027034
Thrapston,52.397,-0.5379999999999999,United Kingdom,E01027076
Oundle,52.48,-0.47200000000000003,United Kingdom,E01027047
Earls Barton,52.26300000000001,-0.746,United Kingdom,E01027322
Brixworth,52.32899999999999,-0.904,United Kingdom,E01027003
Irchester,52.2783,-0.6555,United Kingdom,E01027335
Kingsthorpe,52.2625,-0.9,United Kingdom,E01027229
Finedon,52.34,-0.649,United Kingdom,E01027328
Long Buckby,52.303000000000004,-1.081,United Kingdom,E01027017
Deanshanger,52.0473,-0.8928,United Kingdom,E01027281
Wollaston,52.2564,-0.6694,United Kingdom,E01027355
Moulton,52.2892,-0.8491,United Kingdom,E01027020
Bugbrooke,52.2105,-1.0106,United Kingdom,E01027282
Weedon Beck,52.231,-1.0804,United Kingdom,E01027025
Blyth,55.12600000000001,-1.514,United Kingdom,E01027415
Cramlington,55.082,-1.585,United Kingdom,E01027411
Ashington,55.181000000000004,-1.568,United Kingdom,E01027528
Bedlington,55.133,-1.5830000000000002,United Kingdom,E01027519
Morpeth,55.1675,-1.6908,United Kingdom,E01027453
Berwick-Upon-Tweed,55.771,-2.0069999999999997,United Kingdom,E01027377
Hexham,54.971000000000004,-2.101,United Kingdom,E01027490
Prudhoe,54.96100000000001,-1.849,United Kingdom,E01027500
Ponteland,55.048,-1.7469999999999999,United Kingdom,E01027466
Choppington,55.145,-1.601,United Kingdom,E01027520
Alnwick,55.4134,-1.7069,United Kingdom,E01033715
Newbiggin-by-the-Sea,55.183,-1.515,United Kingdom,E01027544
Amble,55.3306,-1.5783,United Kingdom,E01027363
Cowpen,55.126999999999995,-1.5390000000000001,United Kingdom,E01027393
Seaton Delaval,55.0826,-1.4778,United Kingdom,E01027419
Haltwhistle,54.97,-2.458,United Kingdom,E01027486
Corbridge,54.975,-2.017,United Kingdom,E01027482
Pegswood,55.1798,-1.6442,United Kingdom,E01027462
Ellington,55.2209,-1.5621,United Kingdom,E01027446
Stocksfield,54.948,-1.9140000000000001,United Kingdom,E01027509
Oxford,51.7519,-1.2578,United Kingdom,E01028522
Banbury,52.06100000000001,-1.3359999999999999,United Kingdom,E01028435
Abingdon,51.667,-1.2830000000000001,United Kingdom,E01033306
Bicester,51.9,-1.15,United Kingdom,E01028467
Witney,51.78,-1.49,United Kingdom,E01028819
Didcot,51.606,-1.2409999999999999,United Kingdom,E01028632
Cowley,51.733000000000004,-1.215,United Kingdom,E01028528
Carterton,51.76,-1.59,United Kingdom,E01028774
Kidlington,51.823,-1.291,United Kingdom,E01028487
Henley on Thames,51.536,-0.898,United Kingdom,E01028655
Wallingford,51.599,-1.125,United Kingdom,E01028677
Thame,51.75,-0.97,United Kingdom,E01028668
Wantage,51.589,-1.4269999999999998,United Kingdom,E01028756
Grove,51.611999999999995,-1.421,United Kingdom,E01028724
Faringdon,51.657,-1.5859999999999999,United Kingdom,E01028718
Chipping Norton,51.94,-1.55,United Kingdom,E01028783
Chinnor,51.702,-0.9109999999999999,United Kingdom,E01028613
Cumnor,51.735,-1.3319999999999999,United Kingdom,E01028710
Littlemore,51.72,-1.227,United Kingdom,E01028553
Benson,51.621,-1.111,United Kingdom,E01028599
Eynsham,51.78100000000001,-1.375,United Kingdom,E01028785
North Hinksey,51.748999999999995,-1.2919999999999998,United Kingdom,E01028740
Wheatley,51.747,-1.139,United Kingdom,E01028684
Cholsey,51.574,-1.151,United Kingdom,E01028619
Marston,51.777,-1.236,United Kingdom,E01028561
Bloxham,52.018,-1.375,United Kingdom,E01028476
Woodstock,51.845,-1.354,United Kingdom,E01028823
Charlbury,51.872,-1.482,United Kingdom,E01028778
Chalgrove,51.665,-1.077,United Kingdom,E01028609
Adderbury,52.01600000000001,-1.3130000000000002,United Kingdom,E01028422
Radley,51.68899999999999,-1.24,United Kingdom,E01028743
Watlington,51.645,-1.008,United Kingdom,E01028680
Wootton,51.707,-1.3130000000000002,United Kingdom,E01028752
Bampton,51.727,-1.544,United Kingdom,E01028764
Yarnton,51.81100000000001,-1.31,United Kingdom,E01028512
Shrewsbury,52.708,-2.7539999999999996,United Kingdom,E01028946
Oswestry,52.8598,-3.0538,United Kingdom,E01028906
Bridgnorth,52.535,-2.4195,United Kingdom,E01028833
Ludlow,52.368,-2.718,United Kingdom,E01033526
Whitchurch,52.968999999999994,-2.682,United Kingdom,E01028891
Shifnal,52.665,-2.373,United Kingdom,E01028856
Wem,52.8536,-2.7267,United Kingdom,E01028890
Baystonhill,52.6727,-2.7654,United Kingdom,E01028936
Harlescott,52.7365,-2.7226,United Kingdom,E01028982
Broseley,52.611999999999995,-2.481,United Kingdom,E01028838
Church Stretton,52.538999999999994,-2.8080000000000003,United Kingdom,E01028997
Albrighton,52.6344,-2.2769999999999997,United Kingdom,E01028827
Ellesmere,52.9082,-2.8944,United Kingdom,E01028865
Highley,52.448,-2.3819999999999997,United Kingdom,E01028849
Gobowen,52.896,-3.0380000000000003,United Kingdom,E01028912
Pontesbury,52.648999999999994,-2.888,United Kingdom,E01028977
Knighton,52.343999999999994,-3.049,United Kingdom,E01029003
Cleobury Mortimer,52.3785,-2.4821,United Kingdom,E01029002
Prees,52.897,-2.6660000000000004,United Kingdom,E01028880
Much Wenlock,52.5966,-2.5580000000000003,United Kingdom,E01028852
Shawbury,52.786,-2.655,United Kingdom,E01028884
Whittington,52.873999999999995,-3.003,United Kingdom,E01028927
Baschurch,52.791000000000004,-2.8539999999999996,United Kingdom,E01028860
Newcastle under Lyme,53.0109,-2.2278,United Kingdom,E01029604
Burton upon Trent,52.8019,-1.6367,United Kingdom,E01032898
Stafford,52.8066,-2.1171,United Kingdom,E01029701
Lichfield,52.6835,-1.8265,United Kingdom,E01029526
Cannock,52.691,-2.0269999999999997,United Kingdom,E01029367
Burntwood,52.6831,-1.92,United Kingdom,E01029489
Kingswinford,52.4981,-2.1657,United Kingdom,E01009820
Rugeley,52.7599,-1.9388,United Kingdom,E01029404
Kidsgrove,53.0874,-2.2478,United Kingdom,E01029543
Leek,53.108000000000004,-2.0234,United Kingdom,E01029804
Biddulph,53.12,-2.17,United Kingdom,E01029766
Hednesford,52.7115,-2.0006,United Kingdom,E01029387
Stone,52.9,-2.15,United Kingdom,E01029756
Wombourn,52.5302,-2.1857,United Kingdom,E01029675
Uttoxeter,52.898,-1.86,United Kingdom,E01029461
Cheadle,52.9849,-1.9865,United Kingdom,E01029783
Trentham,52.9663,-2.1899,United Kingdom,E01014349
Market Drayton,52.9044,-2.4848,United Kingdom,E01028873
Great Wyrley,52.6593,-2.0102,United Kingdom,E01029644
Wilnecote,52.6081,-1.6677,United Kingdom,E01029867
Penkridge,52.7252,-2.1164,United Kingdom,E01029659
Audley,53.053000000000004,-2.3040000000000003,United Kingdom,E01029535
Glascote,52.6245,-1.6680000000000001,United Kingdom,E01029845
Codsall,52.6267,-2.1924,United Kingdom,E01029628
Norton Canes,52.6833,-1.9666,United Kingdom,E01029394
Shenstone,52.637,-1.841,United Kingdom,E01029522
Brewood,52.6769,-2.1738,United Kingdom,E01029618
Kinvere,52.4488,-2.228,United Kingdom,E01029649
Branston,52.787,-1.659,United Kingdom,E01029414
Cheddleton,53.06399999999999,-2.043,United Kingdom,E01029793
Blythebridge,52.9704,-2.0709,United Kingdom,E01029800
Silverdale,53.0159,-2.2675,United Kingdom,E01029594
Gnosall,52.785,-2.2528,United Kingdom,E01029707
Eccleshall,52.858999999999995,-2.251,United Kingdom,E01029698
Huntington,52.715,-2.042,United Kingdom,E01029646
Colwich,52.7875,-1.9806,United Kingdom,E01029711
Swynnerton,52.917,-2.217,United Kingdom,E01029749
Fazeley,52.6154,-1.706,United Kingdom,E01029839
Barton under Needwood,52.76300000000001,-1.7269999999999999,United Kingdom,E01029439
Madeley,53.00100000000001,-2.3409999999999997,United Kingdom,E01029574
Keele,53.0044,-2.2871,United Kingdom,E01029576
Chasetown,52.67,-1.92,United Kingdom,E01029506
Endon,53.0788,-2.1112,United Kingdom,E01029776
Tutbury,52.854,-1.686,United Kingdom,E01029465
Barlaston,52.9457,-2.1583,United Kingdom,E01029682
Alrewas,52.732,-1.749,United Kingdom,E01029478
Whittington,52.67,-1.76,United Kingdom,E01029531
Wokingham,51.41,-0.84,United Kingdom,E01016626
Woodley,51.453,-0.902,United Kingdom,E01016616
Earley,51.433,-0.9329999999999999,United Kingdom,E01016653
Shinfield,51.408,-0.9470000000000001,United Kingdom,E01032758
Twyford,51.477,-0.867,United Kingdom,E01016692
Barkham,51.402,-0.8759999999999999,United Kingdom,E01016612
Nuneaton,52.523,-1.4680000000000002,United Kingdom,E01031043
Rugby,52.37,-1.26,United Kingdom,E01031145
Royal Leamington Spa,52.292,-1.537,United Kingdom,E01033256
Warwick,52.28,-1.59,United Kingdom,E01031324
Bedworth,52.475,-1.4769999999999999,United Kingdom,E01031063
Stratford-upon-Avon,52.1928,-1.7064,United Kingdom,E01031229
Kenilworth,52.341,-1.5659999999999998,United Kingdom,E01031307
Whitnash,52.268,-1.524,United Kingdom,E01031327
Atherstone,52.5787,-1.5462,United Kingdom,E01031010
Polesworth,52.6152,-1.6174,United Kingdom,E01031039
Kingsbury,52.5614,-1.6917,United Kingdom,E01031033
Southam,52.251999999999995,-1.39,United Kingdom,E01031220
Coleshill,52.498999999999995,-1.7080000000000002,United Kingdom,E01031021
Alcester,52.215,-1.876,United Kingdom,E01031185
Bilton,52.3594,-1.29,United Kingdom,E01031136
Bulkington,52.4769,-1.425,United Kingdom,E01031067
Studley,52.2696,-1.8915,United Kingdom,E01031242
Wellesbourne Hastings,52.1943,-1.5947,United Kingdom,E01031249
Bidford-on-Avon,52.1644,-1.8567,United Kingdom,E01031192
Shipston on Stour,52.06,-1.6230000000000002,United Kingdom,E01031215
Stoneleigh,52.3514,-1.5147,United Kingdom,E01031308
Water Orton,52.516999999999996,-1.736,United Kingdom,E01031042
Long Lawford,52.3841,-1.3019999999999998,United Kingdom,E01032895
Dunchurch,52.3368,-1.2896,United Kingdom,E01031148
Wolston,52.37,-1.39,United Kingdom,E01031153
Chippenham,51.4585,-2.1158,United Kingdom,E01031912
Salisbury,51.074,-1.7936,United Kingdom,E01032016
Trowbridge,51.32,-2.21,United Kingdom,E01032086
Warminster,51.205,-2.181,United Kingdom,E01032103
Calne,51.438,-2.005,United Kingdom,E01031898
Westbury,51.26,-2.191,United Kingdom,E01032115
Melksham,51.371,-2.138,United Kingdom,E01032068
Corsham,51.43,-2.19,United Kingdom,E01031932
Devizes,51.353,-1.994,United Kingdom,E01031854
Royal Wootton Bassett,51.533,-1.9,United Kingdom,E01031963
Amesbury,51.17,-1.77,United Kingdom,E01031975
North Tidworth,51.236999999999995,-1.6640000000000001,United Kingdom,E01032697
Bradford-on-Avon,51.347,-2.251,United Kingdom,E01032050
Marlborough,51.42,-1.73,United Kingdom,E01031865
Durrington,51.199,-1.775,United Kingdom,E01031996
Malmesbury,51.583999999999996,-2.0980000000000003,United Kingdom,E01031949
Roundway,51.368,-1.9809999999999999,United Kingdom,E01032693
Hilperton,51.33,-2.184,United Kingdom,E01032080
Lyneham,51.507,-1.966,United Kingdom,E01031946
Cricklade,51.64100000000001,-1.8559999999999999,United Kingdom,E01031936
Bulford,51.19,-1.761,United Kingdom,E01031989
Purton,51.588,-1.867,United Kingdom,E01031955
Pewsey,51.339,-1.765,United Kingdom,E01031870
Wilton,51.08,-1.864,United Kingdom,E01032038
Box,51.415,-2.252,United Kingdom,E01031888
Redlynch,50.988,-1.712,United Kingdom,E01031994
Downton,50.993,-1.743,United Kingdom,E01031993
Colerne,51.43899999999999,-2.262,United Kingdom,E01031929
Mere,51.09,-2.266,United Kingdom,E01032037
Worcester,52.192,-2.22,United Kingdom,E01033248
Redditch,52.3069,-1.9492,United Kingdom,E01032234
Kidderminster,52.3885,-2.249,United Kingdom,E01032434
Bromsgrove,52.3353,-2.0579,United Kingdom,E01032157
Droitwich,52.266999999999996,-2.153,United Kingdom,E01032358
Evesham,52.092,-1.9469999999999998,United Kingdom,E01032343
Torton,52.4522,-2.1606,United Kingdom,E01009848
Bewdley,52.3752,-2.3162,United Kingdom,E01032482
Pershore,52.114,-2.08,United Kingdom,E01032406
Alvechurch,52.3506,-1.9647,United Kingdom,E01032124
Malvern Link,52.1255,-2.3161,United Kingdom,E01032195
Stoke Prior,52.3025,-2.0849,United Kingdom,E01032166
Hagley,52.43,-2.12,United Kingdom,E01009853
Tenbury,52.31,-2.59,United Kingdom,E01032214
Malvern Wells,52.0785,-2.3324,United Kingdom,E01032218
Tardebigge,52.321999999999996,-2.0069999999999997,United Kingdom,E01033243
Upton upon Severn,52.063,-2.215,United Kingdom,E01032215
Lickey End,52.3522,-2.0448,United Kingdom,E01032155
Badsey,52.08,-1.89,United Kingdom,E01032341
Kempsey,52.1391,-2.2177,United Kingdom,E01032192
Clent,52.4152,-2.114,United Kingdom,E01032141
Hartlebury,52.33,-2.23,United Kingdom,E01032387
Bredon,52.03,-2.117,United Kingdom,E01032347
Broadway,52.04,-1.86,United Kingdom,E01032351
